{"0005793230":{"OBJECTID":1,"ID":"0005793230","NAME":"CENTRAL VALLEY GENERAL HOSPITAL","ADDRESS":"1025 NORTH DOUTY STREET","CITY":"HANFORD","STATE":"CA","ZIP":"93230","ZIP4":"NOT AVAILABLE","TELEPHONE":"NOT AVAILABLE","TYPE":"GENERAL ACUTE CARE","STATUS":"CLOSED","POPULATION":49,"COUNTY":"KINGS","COUNTYFIPS":"06031","COUNTRY":"USA","LATITUDE":36.3361588500001,"LONGITUDE":-119.645667298,"NAICS_CODE":"622110","NAICS_DESC":"GENERAL MEDICAL AND SURGICAL HOSPITALS","SOURCE":"http://www.oshpd.ca.gov/HID/Facility-Listing.html","SOURCEDATE":1454544000000,"VAL_METHOD":"IMAGERY/OTHER","VAL_DATE":1391990400000,"WEBSITE":"http://www.hanfordhealth.com","STATE_ID":"NOT AVAILABLE","ALT_NAME":"NOT AVAILABLE","ST_FIPS":"06","OWNER":"PROPRIETARY","TTL_STAFF":-999,"BEDS":49,"TRAUMA":"NOT AVAILABLE","HELIPAD":"N","img":"https://logo.clearbit.com/http://www.hanfordhealth.com","santizer":10,"masks":10,"gloves":10},"0053391362":{"OBJECTID":2,"ID":"0053391362","NAME":"LOS ROBLES HOSPITAL & MEDICAL CENTER - EAST CAMPUS","ADDRESS":"150 VIA MERIDA","CITY":"WESTLAKE VILAGE","STATE":"CA","ZIP":"91362","ZIP4":"NOT AVAILABLE","TELEPHONE":"NOT AVAILABLE","TYPE":"GENERAL ACUTE CARE","STATUS":"OPEN","POPULATION":62,"COUNTY":"VENTURA","COUNTYFIPS":"06111","COUNTRY":"USA","LATITUDE":34.1549388720001,"LONGITUDE":-118.815736391,"NAICS_CODE":"622110","NAICS_DESC":"GENERAL MEDICAL AND SURGICAL HOSPITALS","SOURCE":"http://www.oshpd.ca.gov/HID/Facility-Listing.html","SOURCEDATE":1533686400000,"VAL_METHOD":"IMAGERY/OTHER","VAL_DATE":1391990400000,"WEBSITE":"http://www.losrobleshospital.com","STATE_ID":"NOT AVAILABLE","ALT_NAME":"NOT AVAILABLE","ST_FIPS":"06","OWNER":"PROPRIETARY","TTL_STAFF":-999,"BEDS":62,"TRAUMA":"NOT AVAILABLE","HELIPAD":"N","img":"https://logo.clearbit.com/http://www.losrobleshospital.com","santizer":10,"masks":10,"gloves":10},"0011190023":{"OBJECTID":3,"ID":"0011190023","NAME":"EAST LOS ANGELES DOCTORS HOSPITAL","ADDRESS":"4060 WHITTIER BOULEVARD","CITY":"LOS ANGELES","STATE":"CA","ZIP":"90023","ZIP4":"NOT AVAILABLE","TELEPHONE":"NOT AVAILABLE","TYPE":"GENERAL ACUTE CARE","STATUS":"OPEN","POPULATION":127,"COUNTY":"LOS ANGELES","COUNTYFIPS":"06037","COUNTRY":"USA","LATITUDE":34.023647302,"LONGITUDE":-118.184164805,"NAICS_CODE":"622110","NAICS_DESC":"GENERAL MEDICAL AND SURGICAL HOSPITALS","SOURCE":"http://www.oshpd.ca.gov/HID/Facility-Listing.html","SOURCEDATE":1533686400000,"VAL_METHOD":"IMAGERY/OTHER","VAL_DATE":1391990400000,"WEBSITE":"http://www.elalax.com","STATE_ID":"NOT AVAILABLE","ALT_NAME":"NOT AVAILABLE","ST_FIPS":"06","OWNER":"PROPRIETARY","TTL_STAFF":-999,"BEDS":127,"TRAUMA":"NOT AVAILABLE","HELIPAD":"N","img":"https://logo.clearbit.com/http://www.elalax.com","santizer":10,"masks":10,"gloves":10},"0017090028":{"OBJECTID":4,"ID":"0017090028","NAME":"SOUTHERN CALIFORNIA HOSPITAL AT HOLLYWOOD","ADDRESS":"6245 DE LONGPRE AVENUE","CITY":"HOLLYWOOD","STATE":"CA","ZIP":"90028","ZIP4":"NOT AVAILABLE","TELEPHONE":"(323) 462-2271","TYPE":"GENERAL ACUTE CARE","STATUS":"OPEN","POPULATION":100,"COUNTY":"LOS ANGELES","COUNTYFIPS":"06037","COUNTRY":"USA","LATITUDE":34.0963913570001,"LONGITUDE":-118.325234871,"NAICS_CODE":"622110","NAICS_DESC":"GENERAL MEDICAL AND SURGICAL HOSPITALS","SOURCE":"http://www.oshpd.ca.gov/HID/Facility-Listing.html","SOURCEDATE":1533686400000,"VAL_METHOD":"IMAGERY/OTHER","VAL_DATE":1391990400000,"WEBSITE":"http://sch-hollywood.com/","STATE_ID":"NOT AVAILABLE","ALT_NAME":"HOLLYWOOD COMMUNITY HOSPITAL OF HOLLYWOOD","ST_FIPS":"06","OWNER":"PROPRIETARY","TTL_STAFF":-999,"BEDS":100,"TRAUMA":"NOT AVAILABLE","HELIPAD":"N","img":"https://logo.clearbit.com/http://sch-hollywood.com/","santizer":10,"masks":10,"gloves":10},"0023691706":{"OBJECTID":5,"ID":"0023691706","NAME":"KINDRED HOSPITAL BALDWIN PARK","ADDRESS":"14148 FRANCISQUITO AVENUE","CITY":"BALDWIN PARK","STATE":"CA","ZIP":"91706","ZIP4":"NOT AVAILABLE","TELEPHONE":"NOT AVAILABLE","TYPE":"GENERAL ACUTE CARE","STATUS":"OPEN","POPULATION":95,"COUNTY":"LOS ANGELES","COUNTYFIPS":"06037","COUNTRY":"USA","LATITUDE":34.063038932,"LONGITUDE":-117.967437788,"NAICS_CODE":"622110","NAICS_DESC":"GENERAL MEDICAL AND SURGICAL HOSPITALS","SOURCE":"http://www.oshpd.ca.gov/HID/Facility-Listing.html","SOURCEDATE":1533686400000,"VAL_METHOD":"IMAGERY/OTHER","VAL_DATE":1391990400000,"WEBSITE":"http://www.khbaldwinpark.com","STATE_ID":"NOT AVAILABLE","ALT_NAME":"NOT AVAILABLE","ST_FIPS":"06","OWNER":"PROPRIETARY","TTL_STAFF":-999,"BEDS":95,"TRAUMA":"NOT AVAILABLE","HELIPAD":"N","img":"https://logo.clearbit.com/http://www.khbaldwinpark.com","santizer":10,"masks":10,"gloves":10},"0025190712":{"OBJECTID":6,"ID":"0025190712","NAME":"LAKEWOOD REGIONAL MEDICAL CENTER","ADDRESS":"3700 EAST SOUTH STREET","CITY":"LAKEWOOD","STATE":"CA","ZIP":"90712","ZIP4":"NOT AVAILABLE","TELEPHONE":"NOT AVAILABLE","TYPE":"GENERAL ACUTE CARE","STATUS":"OPEN","POPULATION":172,"COUNTY":"LOS ANGELES","COUNTYFIPS":"06037","COUNTRY":"USA","LATITUDE":33.8597066200001,"LONGITUDE":-118.148402965,"NAICS_CODE":"622110","NAICS_DESC":"GENERAL MEDICAL AND SURGICAL HOSPITALS","SOURCE":"http://www.oshpd.ca.gov/HID/Facility-Listing.html","SOURCEDATE":1533686400000,"VAL_METHOD":"IMAGERY/OTHER","VAL_DATE":1391990400000,"WEBSITE":"http://www.lakewoodregional.com","STATE_ID":"NOT AVAILABLE","ALT_NAME":"NOT AVAILABLE","ST_FIPS":"06","OWNER":"PROPRIETARY","TTL_STAFF":-999,"BEDS":172,"TRAUMA":"NOT AVAILABLE","HELIPAD":"N","img":"https://logo.clearbit.com/http://www.lakewoodregional.com","santizer":10,"masks":10,"gloves":10},"0030791016":{"OBJECTID":7,"ID":"0030791016","NAME":"MONROVIA MEMORIAL HOSPITAL","ADDRESS":"323 SOUTH HELIOTROPE AVENUE","CITY":"MONROVIA","STATE":"CA","ZIP":"91016","ZIP4":"NOT AVAILABLE","TELEPHONE":"NOT AVAILABLE","TYPE":"GENERAL ACUTE CARE","STATUS":"OPEN","POPULATION":49,"COUNTY":"LOS ANGELES","COUNTYFIPS":"06037","COUNTRY":"USA","LATITUDE":34.1487586590001,"LONGITUDE":-117.992667657,"NAICS_CODE":"622110","NAICS_DESC":"GENERAL MEDICAL AND SURGICAL HOSPITALS","SOURCE":"http://www.oshpd.ca.gov/HID/Facility-Listing.html","SOURCEDATE":1533686400000,"VAL_METHOD":"IMAGERY/OTHER","VAL_DATE":1391990400000,"WEBSITE":"http://www.monroviamemorial.com","STATE_ID":"NOT AVAILABLE","ALT_NAME":"NOT AVAILABLE","ST_FIPS":"06","OWNER":"PROPRIETARY","TTL_STAFF":-999,"BEDS":49,"TRAUMA":"NOT AVAILABLE","HELIPAD":"N","img":"https://logo.clearbit.com/http://www.monroviamemorial.com","santizer":10,"masks":10,"gloves":10},"0030891754":{"OBJECTID":8,"ID":"0030891754","NAME":"MONTEREY PARK HOSPITAL","ADDRESS":"900 SOUTH ATLANTIC BOULEVARD","CITY":"MONTEREY PARK","STATE":"CA","ZIP":"91754","ZIP4":"NOT AVAILABLE","TELEPHONE":"NOT AVAILABLE","TYPE":"GENERAL ACUTE CARE","STATUS":"OPEN","POPULATION":101,"COUNTY":"LOS ANGELES","COUNTYFIPS":"06037","COUNTRY":"USA","LATITUDE":34.0494660590001,"LONGITUDE":-118.138262231,"NAICS_CODE":"622110","NAICS_DESC":"GENERAL MEDICAL AND SURGICAL HOSPITALS","SOURCE":"http://www.oshpd.ca.gov/HID/Facility-Listing.html","SOURCEDATE":1533686400000,"VAL_METHOD":"IMAGERY/OTHER","VAL_DATE":1391990400000,"WEBSITE":"http://www.montereyparkhosp.com","STATE_ID":"NOT AVAILABLE","ALT_NAME":"NOT AVAILABLE","ST_FIPS":"06","OWNER":"PROPRIETARY","TTL_STAFF":-999,"BEDS":101,"TRAUMA":"NOT AVAILABLE","HELIPAD":"N","img":"https://logo.clearbit.com/http://www.montereyparkhosp.com","santizer":10,"masks":10,"gloves":10},"0047090505":{"OBJECTID":9,"ID":"0047090505","NAME":"STAR VIEW ADOLESCENT - P H F","ADDRESS":"4025 WEST 226 STREET","CITY":"TORRANCE","STATE":"CA","ZIP":"90505","ZIP4":"NOT AVAILABLE","TELEPHONE":"NOT AVAILABLE","TYPE":"PSYCHIATRIC","STATUS":"OPEN","POPULATION":16,"COUNTY":"LOS ANGELES","COUNTYFIPS":"06037","COUNTRY":"USA","LATITUDE":33.823914464,"LONGITUDE":-118.356096947,"NAICS_CODE":"622210","NAICS_DESC":"PSYCHIATRIC AND SUBSTANCE ABUSE HOSPITALS","SOURCE":"http://www.oshpd.ca.gov/HID/Facility-Listing.html","SOURCEDATE":1533686400000,"VAL_METHOD":"IMAGERY/OTHER","VAL_DATE":1391990400000,"WEBSITE":"http://www.starsinc.com/","STATE_ID":"NOT AVAILABLE","ALT_NAME":"NOT AVAILABLE","ST_FIPS":"06","OWNER":"PROPRIETARY","TTL_STAFF":-999,"BEDS":16,"TRAUMA":"NOT AVAILABLE","HELIPAD":"N","img":"https://logo.clearbit.com/http://www.starsinc.com/","santizer":10,"masks":10,"gloves":10},"0009092879":{"OBJECTID":10,"ID":"0009092879","NAME":"CORONA REGIONAL MEDICAL CENTER-MAGNOLIA","ADDRESS":"730 MAGNOLIA AVENUE","CITY":"CORONA","STATE":"CA","ZIP":"92879","ZIP4":"NOT AVAILABLE","TELEPHONE":"NOT AVAILABLE","TYPE":"GENERAL ACUTE CARE","STATUS":"OPEN","POPULATION":78,"COUNTY":"RIVERSIDE","COUNTYFIPS":"06065","COUNTRY":"USA","LATITUDE":33.8580833070001,"LONGITUDE":-117.553858035,"NAICS_CODE":"622110","NAICS_DESC":"GENERAL MEDICAL AND SURGICAL HOSPITALS","SOURCE":"http://www.oshpd.ca.gov/HID/Facility-Listing.html","SOURCEDATE":1533686400000,"VAL_METHOD":"IMAGERY/OTHER","VAL_DATE":1391990400000,"WEBSITE":"http://www.coronaregional.com","STATE_ID":"NOT AVAILABLE","ALT_NAME":"NOT AVAILABLE","ST_FIPS":"06","OWNER":"PROPRIETARY","TTL_STAFF":-999,"BEDS":78,"TRAUMA":"NOT AVAILABLE","HELIPAD":"N","img":"https://logo.clearbit.com/http://www.coronaregional.com","santizer":10,"masks":10,"gloves":10},"0030696101":{"OBJECTID":11,"ID":"0030696101","NAME":"MODOC MEDICAL CENTER","ADDRESS":"228 MC DOWELL STREET","CITY":"ALTURAS","STATE":"CA","ZIP":"96101","ZIP4":"NOT AVAILABLE","TELEPHONE":"NOT AVAILABLE","TYPE":"GENERAL ACUTE CARE","STATUS":"OPEN","POPULATION":87,"COUNTY":"MODOC","COUNTYFIPS":"06049","COUNTRY":"USA","LATITUDE":41.4800562550001,"LONGITUDE":-120.545743987,"NAICS_CODE":"622110","NAICS_DESC":"GENERAL MEDICAL AND SURGICAL HOSPITALS","SOURCE":"http://www.oshpd.ca.gov/HID/Facility-Listing.html","SOURCEDATE":1533686400000,"VAL_METHOD":"IMAGERY/OTHER","VAL_DATE":1391990400000,"WEBSITE":"http://www.modocmedicalcenter.org","STATE_ID":"NOT AVAILABLE","ALT_NAME":"NOT AVAILABLE","ST_FIPS":"06","OWNER":"GOVERNMENT - LOCAL","TTL_STAFF":-999,"BEDS":87,"TRAUMA":"NOT AVAILABLE","HELIPAD":"Y","img":"https://logo.clearbit.com/http://www.modocmedicalcenter.org","santizer":10,"masks":10,"gloves":10},"0038593901":{"OBJECTID":12,"ID":"0038593901","NAME":"SALINAS VALLEY MEMORIAL HOSPITAL","ADDRESS":"450 EAST ROMIE LANE","CITY":"SALINAS","STATE":"CA","ZIP":"93901","ZIP4":"NOT AVAILABLE","TELEPHONE":"NOT AVAILABLE","TYPE":"GENERAL ACUTE CARE","STATUS":"OPEN","POPULATION":269,"COUNTY":"MONTEREY","COUNTYFIPS":"06053","COUNTRY":"USA","LATITUDE":36.659030456,"LONGITUDE":-121.645983804,"NAICS_CODE":"622110","NAICS_DESC":"GENERAL MEDICAL AND SURGICAL HOSPITALS","SOURCE":"http://www.oshpd.ca.gov/HID/Facility-Listing.html","SOURCEDATE":1533686400000,"VAL_METHOD":"IMAGERY/OTHER","VAL_DATE":1391990400000,"WEBSITE":"http://www.svmh.com","STATE_ID":"NOT AVAILABLE","ALT_NAME":"NOT AVAILABLE","ST_FIPS":"06","OWNER":"GOVERNMENT - DISTRICT/AUTHORITY","TTL_STAFF":-999,"BEDS":269,"TRAUMA":"NOT AVAILABLE","HELIPAD":"N","img":"https://logo.clearbit.com/http://www.svmh.com","santizer":10,"masks":10,"gloves":10},"0001890621":{"OBJECTID":13,"ID":"0001890621","NAME":"ANAHEIM GENERAL HOSPITAL - BUENA PARK CAMPUS","ADDRESS":"5742 BEACH BOULEVARD","CITY":"BUENA PARK","STATE":"CA","ZIP":"90621","ZIP4":"NOT AVAILABLE","TELEPHONE":"NOT AVAILABLE","TYPE":"GENERAL ACUTE CARE","STATUS":"CLOSED","POPULATION":42,"COUNTY":"ORANGE","COUNTYFIPS":"06059","COUNTRY":"USA","LATITUDE":33.8764186650001,"LONGITUDE":-117.997897631,"NAICS_CODE":"622110","NAICS_DESC":"GENERAL MEDICAL AND SURGICAL HOSPITALS","SOURCE":"http://www.oshpd.ca.gov/HID/Products/Listings.html","SOURCEDATE":1344816000000,"VAL_METHOD":"IMAGERY/OTHER","VAL_DATE":1391990400000,"WEBSITE":"NOT AVAILABLE","STATE_ID":"NOT AVAILABLE","ALT_NAME":"NOT AVAILABLE","ST_FIPS":"06","OWNER":"PROPRIETARY","TTL_STAFF":-999,"BEDS":42,"TRAUMA":"NOT AVAILABLE","HELIPAD":"N","img":"https://logo.clearbit.com/NOT AVAILABLE","santizer":10,"masks":10,"gloves":10},"0015992866":{"OBJECTID":14,"ID":"0015992866","NAME":"HEALTHBRIDGE CHILDREN'S HOSPITAL-ORANGE","ADDRESS":"393 S, TUSTIN STREET","CITY":"ORANGE","STATE":"CA","ZIP":"92866","ZIP4":"NOT AVAILABLE","TELEPHONE":"NOT AVAILABLE","TYPE":"CHILDREN","STATUS":"OPEN","POPULATION":27,"COUNTY":"ORANGE","COUNTYFIPS":"06059","COUNTRY":"USA","LATITUDE":33.7827271730001,"LONGITUDE":-117.833891865,"NAICS_CODE":"622110","NAICS_DESC":"CHILDREN'S HOSPITALS, GENERAL","SOURCE":"http://www.oshpd.ca.gov/HID/Facility-Listing.html","SOURCEDATE":1533686400000,"VAL_METHOD":"IMAGERY/OTHER","VAL_DATE":1391990400000,"WEBSITE":"http://www.HealthBridgeOrange.com","STATE_ID":"NOT AVAILABLE","ALT_NAME":"NOT AVAILABLE","ST_FIPS":"06","OWNER":"PROPRIETARY","TTL_STAFF":-999,"BEDS":27,"TRAUMA":"NOT AVAILABLE","HELIPAD":"N","img":"https://logo.clearbit.com/http://www.HealthBridgeOrange.com","santizer":10,"masks":10,"gloves":10},"0016192680":{"OBJECTID":15,"ID":"0016192680","NAME":"HEALTHSOUTH TUSTIN REHABILITATION HOSPITAL","ADDRESS":"14851 YORBA STREET","CITY":"TUSTIN","STATE":"CA","ZIP":"92680","ZIP4":"NOT AVAILABLE","TELEPHONE":"NOT AVAILABLE","TYPE":"GENERAL ACUTE CARE","STATUS":"OPEN","POPULATION":48,"COUNTY":"ORANGE","COUNTYFIPS":"06059","COUNTRY":"USA","LATITUDE":33.7474607400001,"LONGITUDE":-117.831055631,"NAICS_CODE":"622110","NAICS_DESC":"GENERAL MEDICAL AND SURGICAL HOSPITALS","SOURCE":"http://www.oshpd.ca.gov/HID/Facility-Listing.html","SOURCEDATE":1533686400000,"VAL_METHOD":"IMAGERY/OTHER","VAL_DATE":1391990400000,"WEBSITE":"http://www.tustinrehab.com","STATE_ID":"NOT AVAILABLE","ALT_NAME":"NOT AVAILABLE","ST_FIPS":"06","OWNER":"PROPRIETARY","TTL_STAFF":-999,"BEDS":48,"TRAUMA":"NOT AVAILABLE","HELIPAD":"N","img":"https://logo.clearbit.com/http://www.tustinrehab.com","santizer":10,"masks":10,"gloves":10},"0023792621":{"OBJECTID":16,"ID":"0023792621","NAME":"KINDRED HOSPITAL BREA","ADDRESS":"875 NORTH BREA BOULEVARD","CITY":"BREA","STATE":"CA","ZIP":"92621","ZIP4":"NOT AVAILABLE","TELEPHONE":"NOT AVAILABLE","TYPE":"GENERAL ACUTE CARE","STATUS":"OPEN","POPULATION":86,"COUNTY":"ORANGE","COUNTYFIPS":"06059","COUNTRY":"USA","LATITUDE":33.934495886,"LONGITUDE":-117.893948792,"NAICS_CODE":"622110","NAICS_DESC":"GENERAL MEDICAL AND SURGICAL HOSPITALS","SOURCE":"http://www.oshpd.ca.gov/HID/Facility-Listing.html","SOURCEDATE":1533686400000,"VAL_METHOD":"IMAGERY/OTHER","VAL_DATE":1391990400000,"WEBSITE":"http://www.kindredhospitalbrea.com/","STATE_ID":"NOT AVAILABLE","ALT_NAME":"NOT AVAILABLE","ST_FIPS":"06","OWNER":"PROPRIETARY","TTL_STAFF":-999,"BEDS":86,"TRAUMA":"NOT AVAILABLE","HELIPAD":"N","img":"https://logo.clearbit.com/http://www.kindredhospitalbrea.com/","santizer":10,"masks":10,"gloves":10},"0024392683":{"OBJECTID":17,"ID":"0024392683","NAME":"KINDRED HOSPITAL WESTMINSTER","ADDRESS":"200 HOSPITAL CIRCLE","CITY":"WESTMINSTER","STATE":"CA","ZIP":"92683","ZIP4":"NOT AVAILABLE","TELEPHONE":"NOT AVAILABLE","TYPE":"GENERAL ACUTE CARE","STATUS":"OPEN","POPULATION":109,"COUNTY":"ORANGE","COUNTYFIPS":"06059","COUNTRY":"USA","LATITUDE":33.7635332090001,"LONGITUDE":-117.995255963,"NAICS_CODE":"622110","NAICS_DESC":"GENERAL MEDICAL AND SURGICAL HOSPITALS","SOURCE":"http://www.oshpd.ca.gov/HID/Facility-Listing.html","SOURCEDATE":1533686400000,"VAL_METHOD":"IMAGERY/OTHER","VAL_DATE":1391990400000,"WEBSITE":"http://www.khwestminster.com/","STATE_ID":"NOT AVAILABLE","ALT_NAME":"NOT AVAILABLE","ST_FIPS":"06","OWNER":"PROPRIETARY","TTL_STAFF":-999,"BEDS":109,"TRAUMA":"NOT AVAILABLE","HELIPAD":"N","img":"https://logo.clearbit.com/http://www.khwestminster.com/","santizer":10,"masks":10,"gloves":10},"0022093277":{"OBJECTID":18,"ID":"0022093277","NAME":"KAWEAH DELTA  MENTAL HEALTH HOSPITAL D/P APH","ADDRESS":"1100 SO. AKERS STREET","CITY":"VISALIA","STATE":"CA","ZIP":"93277","ZIP4":"NOT AVAILABLE","TELEPHONE":"NOT AVAILABLE","TYPE":"GENERAL ACUTE CARE","STATUS":"OPEN","POPULATION":63,"COUNTY":"TULARE","COUNTYFIPS":"06107","COUNTRY":"USA","LATITUDE":36.320843946,"LONGITUDE":-119.348234528,"NAICS_CODE":"622110","NAICS_DESC":"GENERAL MEDICAL AND SURGICAL HOSPITALS","SOURCE":"http://www.oshpd.ca.gov/HID/Facility-Listing.html","SOURCEDATE":1533686400000,"VAL_METHOD":"IMAGERY/OTHER","VAL_DATE":1391990400000,"WEBSITE":"http://www.kaweahdelta.org","STATE_ID":"NOT AVAILABLE","ALT_NAME":"NOT AVAILABLE","ST_FIPS":"06","OWNER":"GOVERNMENT - DISTRICT/AUTHORITY","TTL_STAFF":-999,"BEDS":63,"TRAUMA":"NOT AVAILABLE","HELIPAD":"N","img":"https://logo.clearbit.com/http://www.kaweahdelta.org","santizer":10,"masks":10,"gloves":10},"0021031503":{"OBJECTID":19,"ID":"0021031503","NAME":"SATILLA PARK HOSPITAL","ADDRESS":"2500 SATILLA PARKWAY","CITY":"WAYCROSS","STATE":"GA","ZIP":"31503","ZIP4":"NOT AVAILABLE","TELEPHONE":"(912) 284-2673","TYPE":"PSYCHIATRIC","STATUS":"CLOSED","POPULATION":53,"COUNTY":"WARE","COUNTYFIPS":"13299","COUNTRY":"USA","LATITUDE":31.2452805230001,"LONGITUDE":-82.3919199869999,"NAICS_CODE":"622210","NAICS_DESC":"HOSPITALS, PSYCHIATRIC (EXCEPT CONVALESCENT)","SOURCE":"http://167.193.144.247/","SOURCEDATE":1353715200000,"VAL_METHOD":"IMAGERY/OTHER","VAL_DATE":1391990400000,"WEBSITE":"NOT AVAILABLE","STATE_ID":"213","ALT_NAME":"NOT AVAILABLE","ST_FIPS":"13","OWNER":"NOT AVAILABLE","TTL_STAFF":-999,"BEDS":53,"TRAUMA":"NOT AVAILABLE","HELIPAD":"N","img":"https://logo.clearbit.com/NOT AVAILABLE","santizer":10,"masks":10,"gloves":10},"0001931537":{"OBJECTID":20,"ID":"0001931537","NAME":"CHARLTON MEMORIAL HOSPITAL","ADDRESS":"2449 THIRD STREET","CITY":"FOLKSTON","STATE":"GA","ZIP":"31537","ZIP4":"NOT AVAILABLE","TELEPHONE":"NOT AVAILABLE","TYPE":"GENERAL ACUTE CARE","STATUS":"CLOSED","POPULATION":-999,"COUNTY":"CHARLTON","COUNTYFIPS":"13049","COUNTRY":"USA","LATITUDE":30.845275348,"LONGITUDE":-82.005057392,"NAICS_CODE":"622110","NAICS_DESC":"GENERAL MEDICAL AND SURGICAL HOSPITALS","SOURCE":"http://167.193.144.247/","SOURCEDATE":1353715200000,"VAL_METHOD":"IMAGERY/OTHER","VAL_DATE":1391990400000,"WEBSITE":"http://www.southcoast.org/charlton/","STATE_ID":"14","ALT_NAME":"NOT AVAILABLE","ST_FIPS":"13","OWNER":"GOVERNMENT - DISTRICT/AUTHORITY","TTL_STAFF":-999,"BEDS":-999,"TRAUMA":"NOT AVAILABLE","HELIPAD":"Y","img":"https://logo.clearbit.com/http://www.southcoast.org/charlton/","santizer":10,"masks":10,"gloves":10},"0005870563":{"OBJECTID":21,"ID":"0005870563","NAME":"DAUTERIVE HOSPITAL","ADDRESS":"600 N LEWIS AVE.","CITY":"NEW IBERIA","STATE":"LA","ZIP":"70563","ZIP4":"NOT AVAILABLE","TELEPHONE":"(337) 365-7311","TYPE":"GENERAL ACUTE CARE","STATUS":"OPEN","POPULATION":103,"COUNTY":"IBERIA","COUNTYFIPS":"22045","COUNTRY":"USA","LATITUDE":30.006906977,"LONGITUDE":-91.794523853,"NAICS_CODE":"622110","NAICS_DESC":"GENERAL MEDICAL AND SURGICAL HOSPITALS","SOURCE":"http://new.dhh.louisiana.gov/index.cfm/directory/category/169","SOURCEDATE":1534377600000,"VAL_METHOD":"IMAGERY/OTHER","VAL_DATE":1391990400000,"WEBSITE":"http://www.dauterivehospital.com","STATE_ID":"NOT AVAILABLE","ALT_NAME":"NOT AVAILABLE","ST_FIPS":"22","OWNER":"PROPRIETARY","TTL_STAFF":-999,"BEDS":103,"TRAUMA":"NOT AVAILABLE","HELIPAD":"Y","img":"https://logo.clearbit.com/http://www.dauterivehospital.com","santizer":10,"masks":10,"gloves":10},"0002070364":{"OBJECTID":22,"ID":"0002070364","NAME":"COMPASS BEHAVIORAL CENTER OF HOUMA","ADDRESS":"4701 W PARK AVE","CITY":"HOUMA","STATE":"LA","ZIP":"70364","ZIP4":"NOT AVAILABLE","TELEPHONE":"(985) 876-1715","TYPE":"PSYCHIATRIC","STATUS":"OPEN","POPULATION":-999,"COUNTY":"TERREBONNE","COUNTYFIPS":"22109","COUNTRY":"USA","LATITUDE":29.620860749,"LONGITUDE":-90.7493061499999,"NAICS_CODE":"622210","NAICS_DESC":"PSYCHIATRIC AND SUBSTANCE ABUSE HOSPITALS","SOURCE":"http://new.dhh.louisiana.gov/index.cfm/directory/category/169","SOURCEDATE":1534377600000,"VAL_METHOD":"IMAGERY/OTHER","VAL_DATE":1391990400000,"WEBSITE":"http://www.compasshealthcare.com/site83.php","STATE_ID":"NOT AVAILABLE","ALT_NAME":"NOT AVAILABLE","ST_FIPS":"22","OWNER":"PROPRIETARY","TTL_STAFF":-999,"BEDS":-999,"TRAUMA":"NOT AVAILABLE","HELIPAD":"N","img":"https://logo.clearbit.com/http://www.compasshealthcare.com/site83.php","santizer":10,"masks":10,"gloves":10},"0004671360":{"OBJECTID":23,"ID":"0004671360","NAME":"CENTRAL LOUISIANA STATE HOSPITAL","ADDRESS":"242 W SHAMROCK AVE","CITY":"PINEVILLE","STATE":"LA","ZIP":"71360","ZIP4":"NOT AVAILABLE","TELEPHONE":"(318) 484-6200","TYPE":"PSYCHIATRIC","STATUS":"OPEN","POPULATION":128,"COUNTY":"RAPIDES","COUNTYFIPS":"22079","COUNTRY":"USA","LATITUDE":31.3273789420001,"LONGITUDE":-92.4401351129999,"NAICS_CODE":"622210","NAICS_DESC":"PSYCHIATRIC AND SUBSTANCE ABUSE HOSPITALS","SOURCE":"http://new.dhh.louisiana.gov/index.cfm/directory/category/169","SOURCEDATE":1534377600000,"VAL_METHOD":"IMAGERY/OTHER","VAL_DATE":1391990400000,"WEBSITE":"http://www.dhh.la.gov/omh/inpatient-serv/clsh.htm","STATE_ID":"NOT AVAILABLE","ALT_NAME":"NOT AVAILABLE","ST_FIPS":"22","OWNER":"GOVERNMENT - STATE","TTL_STAFF":-999,"BEDS":128,"TRAUMA":"NOT AVAILABLE","HELIPAD":"N","img":"https://logo.clearbit.com/http://www.dhh.la.gov/omh/inpatient-serv/clsh.htm","santizer":10,"masks":10,"gloves":10},"0015671222":{"OBJECTID":24,"ID":"0015671222","NAME":"REEVES MEMORIAL MEDICAL CENTER","ADDRESS":"409 1ST ST","CITY":"BERNICE","STATE":"LA","ZIP":"71222","ZIP4":"NOT AVAILABLE","TELEPHONE":"(318) 285-9066","TYPE":"GENERAL ACUTE CARE","STATUS":"OPEN","POPULATION":11,"COUNTY":"UNION","COUNTYFIPS":"22111","COUNTRY":"USA","LATITUDE":32.8239916700001,"LONGITUDE":-92.656648681,"NAICS_CODE":"622110","NAICS_DESC":"GENERAL MEDICAL AND SURGICAL HOSPITALS","SOURCE":"http://new.dhh.louisiana.gov/index.cfm/directory/category/169","SOURCEDATE":1534377600000,"VAL_METHOD":"IMAGERY/OTHER","VAL_DATE":1381190400000,"WEBSITE":"http://reevesmemorial.com/","STATE_ID":"NOT AVAILABLE","ALT_NAME":"NOT AVAILABLE","ST_FIPS":"22","OWNER":"GOVERNMENT - DISTRICT/AUTHORITY","TTL_STAFF":-999,"BEDS":11,"TRAUMA":"NOT AVAILABLE","HELIPAD":"Y","img":"https://logo.clearbit.com/http://reevesmemorial.com/","santizer":10,"masks":10,"gloves":10},"0016971241":{"OBJECTID":25,"ID":"0016971241","NAME":"SERENITY SPRINGS SPECIALTY HOSPITAL","ADDRESS":"309 N MAIN ST","CITY":"FARMERVILLE","STATE":"LA","ZIP":"71241","ZIP4":"NOT AVAILABLE","TELEPHONE":"(318) 202-3860","TYPE":"PSYCHIATRIC","STATUS":"OPEN","POPULATION":18,"COUNTY":"UNION","COUNTYFIPS":"22111","COUNTRY":"USA","LATITUDE":32.776127934,"LONGITUDE":-92.4056258479999,"NAICS_CODE":"622210","NAICS_DESC":"PSYCHIATRIC AND SUBSTANCE ABUSE HOSPITALS","SOURCE":"http://new.dhh.louisiana.gov/index.cfm/directory/category/169","SOURCEDATE":1534377600000,"VAL_METHOD":"IMAGERY/OTHER","VAL_DATE":1513296000000,"WEBSITE":"http://www.serenityhospital.com","STATE_ID":"NOT AVAILABLE","ALT_NAME":"NOT AVAILABLE","ST_FIPS":"22","OWNER":"PROPRIETARY","TTL_STAFF":-999,"BEDS":18,"TRAUMA":"NOT AVAILABLE","HELIPAD":"N","img":"https://logo.clearbit.com/http://www.serenityhospital.com","santizer":10,"masks":10,"gloves":10},"0015371373":{"OBJECTID":26,"ID":"0015371373","NAME":"PROMISE HOSPITAL OF MISS-LOU","ADDRESS":"209 FRONT ST.","CITY":"VIDALIA","STATE":"LA","ZIP":"71373","ZIP4":"NOT AVAILABLE","TELEPHONE":"(800) 269-8034","TYPE":"LONG TERM CARE","STATUS":"OPEN","POPULATION":40,"COUNTY":"CONCORDIA","COUNTYFIPS":"22029","COUNTRY":"USA","LATITUDE":31.5611748630001,"LONGITUDE":-91.4260669829999,"NAICS_CODE":"622310","NAICS_DESC":"SPECIALTY (EXCEPT PSYCHIATRIC AND SUBSTANCE ABUSE) HOSPITALS","SOURCE":"http://new.dhh.louisiana.gov/index.cfm/directory/category/169","SOURCEDATE":1534377600000,"VAL_METHOD":"IMAGERY/OTHER","VAL_DATE":1391990400000,"WEBSITE":"http://www.promise-misslou.com","STATE_ID":"NOT AVAILABLE","ALT_NAME":"NOT AVAILABLE","ST_FIPS":"22","OWNER":"PROPRIETARY","TTL_STAFF":-999,"BEDS":40,"TRAUMA":"NOT AVAILABLE","HELIPAD":"N","img":"https://logo.clearbit.com/http://www.promise-misslou.com","santizer":10,"masks":10,"gloves":10},"0005371418":{"OBJECTID":27,"ID":"0005371418","NAME":"CITIZENS MEDICAL CENTER","ADDRESS":"7939 HIGHWAY 165","CITY":"COLUMBIA","STATE":"LA","ZIP":"71418","ZIP4":"NOT AVAILABLE","TELEPHONE":"(318) 649-6106","TYPE":"GENERAL ACUTE CARE","STATUS":"OPEN","POPULATION":40,"COUNTY":"CALDWELL","COUNTYFIPS":"22021","COUNTRY":"USA","LATITUDE":32.0600399510001,"LONGITUDE":-92.099137669,"NAICS_CODE":"622110","NAICS_DESC":"GENERAL MEDICAL AND SURGICAL HOSPITALS","SOURCE":"http://new.dhh.louisiana.gov/index.cfm/directory/category/169","SOURCEDATE":1534377600000,"VAL_METHOD":"IMAGERY/OTHER","VAL_DATE":1392076800000,"WEBSITE":"NOT AVAILABLE","STATE_ID":"NOT AVAILABLE","ALT_NAME":"NOT AVAILABLE","ST_FIPS":"22","OWNER":"GOVERNMENT - DISTRICT/AUTHORITY","TTL_STAFF":-999,"BEDS":40,"TRAUMA":"NOT AVAILABLE","HELIPAD":"Y","img":"https://logo.clearbit.com/NOT AVAILABLE","santizer":10,"masks":10,"gloves":10},"0004270739":{"OBJECTID":28,"ID":"0004270739","NAME":"EAST LOUISIANA STATE HOSPITAL-GREENWELL SPRINGS","ADDRESS":"23260 GREENWELL SPRINGS RD","CITY":"GREENWELL SPRINGS","STATE":"LA","ZIP":"70739","ZIP4":"NOT AVAILABLE","TELEPHONE":"(225) 261-2730","TYPE":"GENERAL ACUTE CARE","STATUS":"CLOSED","POPULATION":452,"COUNTY":"EAST BATON ROUGE","COUNTYFIPS":"22033","COUNTRY":"USA","LATITUDE":30.5775340800001,"LONGITUDE":-90.9919387369999,"NAICS_CODE":"622110","NAICS_DESC":"GENERAL MEDICAL AND SURGICAL HOSPITALS","SOURCE":"http://new.dhh.louisiana.gov/index.cfm/directory/category/169","SOURCEDATE":1353283200000,"VAL_METHOD":"IMAGERY/OTHER","VAL_DATE":1557360000000,"WEBSITE":"http://new.dhh.louisiana.gov/index.cfm/directory/detail/219","STATE_ID":"NOT AVAILABLE","ALT_NAME":"NOT AVAILABLE","ST_FIPS":"22","OWNER":"GOVERNMENT - STATE","TTL_STAFF":-999,"BEDS":452,"TRAUMA":"NOT AVAILABLE","HELIPAD":"N","img":"https://logo.clearbit.com/http://new.dhh.louisiana.gov/index.cfm/directory/detail/219","santizer":10,"masks":10,"gloves":10},"0022830662":{"OBJECTID":29,"ID":"0022830662","NAME":"BROWN MEMORIAL CONVALESCENT CENTER","ADDRESS":"545 COOK STREET","CITY":"ROYSTON","STATE":"GA","ZIP":"30662","ZIP4":"NOT AVAILABLE","TELEPHONE":"(706) 245-1900","TYPE":"LONG TERM CARE","STATUS":"CLOSED","POPULATION":144,"COUNTY":"FRANKLIN","COUNTYFIPS":"13119","COUNTRY":"USA","LATITUDE":34.2832503650001,"LONGITUDE":-83.118972365,"NAICS_CODE":"622310","NAICS_DESC":"EXTENDED CARE HOSPITALS (EXCEPT MENTAL, SUBSTANCE ABUSE)","SOURCE":"http://167.193.144.247/","SOURCEDATE":1353715200000,"VAL_METHOD":"IMAGERY/OTHER","VAL_DATE":1391990400000,"WEBSITE":"http://tycobbhealthcare.com/ProgramsServices/LongTermCare/BrownMemorialConvalescentCenter.aspx","STATE_ID":"NOT AVAILABLE","ALT_NAME":"NOT AVAILABLE","ST_FIPS":"13","OWNER":"PROPRIETARY","TTL_STAFF":-999,"BEDS":144,"TRAUMA":"NOT AVAILABLE","HELIPAD":"N","img":"https://logo.clearbit.com/http://tycobbhealthcare.com/ProgramsServices/LongTermCare/BrownMemorialConvalescentCenter.aspx","santizer":10,"masks":10,"gloves":10},"0002054311":{"OBJECTID":30,"ID":"0002054311","NAME":"BROWN CTY COMMUNITY TREATMENT CENTER","ADDRESS":"3150 GERSHWIN DRIVE","CITY":"GREEN BAY","STATE":"WI","ZIP":"54311","ZIP4":"NOT AVAILABLE","TELEPHONE":"(920) 391-4700","TYPE":"PSYCHIATRIC","STATUS":"OPEN","POPULATION":16,"COUNTY":"BROWN","COUNTYFIPS":"55009","COUNTRY":"USA","LATITUDE":44.522712261,"LONGITUDE":-87.924827084,"NAICS_CODE":"622210","NAICS_DESC":"PSYCHIATRIC AND SUBSTANCE ABUSE HOSPITALS","SOURCE":"https://www.dhs.wisconsin.gov/guide/hospital.htm","SOURCEDATE":1534118400000,"VAL_METHOD":"IMAGERY/OTHER","VAL_DATE":1391990400000,"WEBSITE":"http://www.co.brown.wi.us/","STATE_ID":"213","ALT_NAME":"NOT AVAILABLE","ST_FIPS":"55","OWNER":"GOVERNMENT - LOCAL","TTL_STAFF":-999,"BEDS":16,"TRAUMA":"NOT AVAILABLE","HELIPAD":"N","img":"https://logo.clearbit.com/http://www.co.brown.wi.us/","santizer":10,"masks":10,"gloves":10},"0070990806":{"OBJECTID":31,"ID":"0070990806","NAME":"COLLEGE MEDICAL CENTER","ADDRESS":"2776 PACIFIC AVENUE","CITY":"LONG BEACH","STATE":"CA","ZIP":"90806","ZIP4":"NOT AVAILABLE","TELEPHONE":"NOT AVAILABLE","TYPE":"GENERAL ACUTE CARE","STATUS":"OPEN","POPULATION":121,"COUNTY":"LOS ANGELES","COUNTYFIPS":"06037","COUNTRY":"USA","LATITUDE":33.8070928700001,"LONGITUDE":-118.193389929,"NAICS_CODE":"622110","NAICS_DESC":"GENERAL MEDICAL AND SURGICAL HOSPITALS","SOURCE":"http://www.oshpd.ca.gov/HID/Facility-Listing.html","SOURCEDATE":1533686400000,"VAL_METHOD":"IMAGERY/OTHER","VAL_DATE":1421107200000,"WEBSITE":"http://www.collegemedicalcenter.com","STATE_ID":"NOT AVAILABLE","ALT_NAME":"PACIFIC HOSPITAL OF LONG BEACH","ST_FIPS":"06","OWNER":"PROPRIETARY","TTL_STAFF":-999,"BEDS":121,"TRAUMA":"NOT AVAILABLE","HELIPAD":"N","img":"https://logo.clearbit.com/http://www.collegemedicalcenter.com","santizer":10,"masks":10,"gloves":10},"0071794577":{"OBJECTID":32,"ID":"0071794577","NAME":"KAISER FOUNDATION HOSPITAL - SAN LEANDRO","ADDRESS":"2500 MERCED STREET","CITY":"SAN LEANDRO","STATE":"CA","ZIP":"94577","ZIP4":"NOT AVAILABLE","TELEPHONE":"NOT AVAILABLE","TYPE":"GENERAL ACUTE CARE","STATUS":"OPEN","POPULATION":216,"COUNTY":"ALAMEDA","COUNTYFIPS":"06001","COUNTRY":"USA","LATITUDE":37.706406198,"LONGITUDE":-122.164654518,"NAICS_CODE":"622110","NAICS_DESC":"GENERAL MEDICAL AND SURGICAL HOSPITALS","SOURCE":"http://www.oshpd.ca.gov/HID/Facility-Listing.html","SOURCEDATE":1533686400000,"VAL_METHOD":"IMAGERY/OTHER","VAL_DATE":1421193600000,"WEBSITE":"http://www.kaiserpermanente.org","STATE_ID":"NOT AVAILABLE","ALT_NAME":"NOT AVAILABLE","ST_FIPS":"06","OWNER":"NOT AVAILABLE","TTL_STAFF":-999,"BEDS":216,"TRAUMA":"NOT AVAILABLE","HELIPAD":"N","img":"https://logo.clearbit.com/http://www.kaiserpermanente.org","santizer":10,"masks":10,"gloves":10},"0072590723":{"OBJECTID":33,"ID":"0072590723","NAME":"PROMISE HOSPITAL OF EAST LOS ANGELES-SUBURBAN CAMPUS","ADDRESS":"16453 SOUTH COLORADO AVENUE","CITY":"PARAMOUNT","STATE":"CA","ZIP":"90723","ZIP4":"NOT AVAILABLE","TELEPHONE":"NOT AVAILABLE","TYPE":"LONG TERM CARE","STATUS":"OPEN","POPULATION":177,"COUNTY":"LOS ANGELES","COUNTYFIPS":"06037","COUNTRY":"USA","LATITUDE":33.8846318610001,"LONGITUDE":-118.162267066,"NAICS_CODE":"622310","NAICS_DESC":"SPECIALTY (EXCEPT PSYCHIATRIC AND SUBSTANCE ABUSE) HOSPITALS","SOURCE":"http://www.oshpd.ca.gov/HID/Facility-Listing.html","SOURCEDATE":1533686400000,"VAL_METHOD":"IMAGERY/OTHER","VAL_DATE":1421193600000,"WEBSITE":"http://www.promiseeastla.com/","STATE_ID":"NOT AVAILABLE","ALT_NAME":"NOT AVAILABLE","ST_FIPS":"06","OWNER":"PROPRIETARY","TTL_STAFF":-999,"BEDS":177,"TRAUMA":"NOT AVAILABLE","HELIPAD":"N","img":"https://logo.clearbit.com/http://www.promiseeastla.com/","santizer":10,"masks":10,"gloves":10},"0073790650":{"OBJECTID":34,"ID":"0073790650","NAME":"DEPARTMENT OF STATE HOSPITAL-METROPOLITAN","ADDRESS":"11401 BLOOMFIELD AVENUE","CITY":"NORWALK","STATE":"CA","ZIP":"90650","ZIP4":"NOT AVAILABLE","TELEPHONE":"(562) 863-7011","TYPE":"PSYCHIATRIC","STATUS":"OPEN","POPULATION":1265,"COUNTY":"LOS ANGELES","COUNTYFIPS":"06037","COUNTRY":"USA","LATITUDE":33.928031349,"LONGITUDE":-118.067989672,"NAICS_CODE":"622210","NAICS_DESC":"PSYCHIATRIC AND SUBSTANCE ABUSE HOSPITALS","SOURCE":"http://www.oshpd.ca.gov/HID/Facility-Listing.html","SOURCEDATE":1533686400000,"VAL_METHOD":"IMAGERY/OTHER","VAL_DATE":1421366400000,"WEBSITE":"http://www.dsh.ca.gov/metropolitan/default.asp","STATE_ID":"NOT AVAILABLE","ALT_NAME":"NOT AVAILABLE","ST_FIPS":"06","OWNER":"GOVERNMENT - STATE","TTL_STAFF":-999,"BEDS":1265,"TRAUMA":"NOT AVAILABLE","HELIPAD":"N","img":"https://logo.clearbit.com/http://www.dsh.ca.gov/metropolitan/default.asp","santizer":10,"masks":10,"gloves":10},"0074592592":{"OBJECTID":35,"ID":"0074592592","NAME":"TEMECULA VALLEY HOSPITAL","ADDRESS":"31700 TEMECULA PKWY","CITY":"TEMECULA","STATE":"CA","ZIP":"92592","ZIP4":"NOT AVAILABLE","TELEPHONE":"NOT AVAILABLE","TYPE":"GENERAL ACUTE CARE","STATUS":"OPEN","POPULATION":140,"COUNTY":"RIVERSIDE","COUNTYFIPS":"06065","COUNTRY":"USA","LATITUDE":33.480464468,"LONGITUDE":-117.105954594,"NAICS_CODE":"622110","NAICS_DESC":"GENERAL MEDICAL AND SURGICAL HOSPITALS","SOURCE":"http://www.oshpd.ca.gov/HID/Facility-Listing.html","SOURCEDATE":1533686400000,"VAL_METHOD":"IMAGERY/OTHER","VAL_DATE":1421366400000,"WEBSITE":"NOT AVAILABLE","STATE_ID":"NOT AVAILABLE","ALT_NAME":"NOT AVAILABLE","ST_FIPS":"06","OWNER":"NOT AVAILABLE","TTL_STAFF":-999,"BEDS":140,"TRAUMA":"NOT AVAILABLE","HELIPAD":"N","img":"https://logo.clearbit.com/NOT AVAILABLE","santizer":10,"masks":10,"gloves":10},"0085531419":{"OBJECTID":36,"ID":"0085531419","NAME":"ST JOSEPH'S HOSPITAL - SAVANNAH","ADDRESS":"11705 MERCY BOULEVARD","CITY":"SAVANNAH","STATE":"GA","ZIP":"31419","ZIP4":"NOT AVAILABLE","TELEPHONE":"NOT AVAILABLE","TYPE":"GENERAL ACUTE CARE","STATUS":"OPEN","POPULATION":-999,"COUNTY":"CHATHAM","COUNTYFIPS":"13051","COUNTRY":"USA","LATITUDE":31.985430321,"LONGITUDE":-81.154556369,"NAICS_CODE":"622110","NAICS_DESC":"GENERAL MEDICAL AND SURGICAL HOSPITALS","SOURCE":"http://www.gamap2care.info/","SOURCEDATE":1533772800000,"VAL_METHOD":"IMAGERY/OTHER","VAL_DATE":1425513600000,"WEBSITE":"NOT AVAILABLE","STATE_ID":"NOT AVAILABLE","ALT_NAME":"NOT AVAILABLE","ST_FIPS":"13","OWNER":"NON-PROFIT","TTL_STAFF":-999,"BEDS":294,"TRAUMA":"NOT AVAILABLE","HELIPAD":"Y","img":"https://logo.clearbit.com/NOT AVAILABLE","santizer":10,"masks":10,"gloves":10},"0086630165":{"OBJECTID":37,"ID":"0086630165","NAME":"KINDRED HOSPITAL ROME","ADDRESS":"320 TURNER MCCALL BOULEVARD","CITY":"ROME","STATE":"GA","ZIP":"30165","ZIP4":"NOT AVAILABLE","TELEPHONE":"NOT AVAILABLE","TYPE":"LONG TERM CARE","STATUS":"OPEN","POPULATION":45,"COUNTY":"FLOYD","COUNTYFIPS":"13115","COUNTRY":"USA","LATITUDE":34.259713445,"LONGITUDE":-85.1802396319999,"NAICS_CODE":"622310","NAICS_DESC":"SPECIALTY (EXCEPT PSYCHIATRIC AND SUBSTANCE ABUSE) HOSPITALS","SOURCE":"http://www.gamap2care.info/","SOURCEDATE":1533772800000,"VAL_METHOD":"IMAGERY/OTHER","VAL_DATE":1425513600000,"WEBSITE":"NOT AVAILABLE","STATE_ID":"NOT AVAILABLE","ALT_NAME":"NOT AVAILABLE","ST_FIPS":"13","OWNER":"NOT AVAILABLE","TTL_STAFF":-999,"BEDS":45,"TRAUMA":"NOT AVAILABLE","HELIPAD":"N","img":"https://logo.clearbit.com/NOT AVAILABLE","santizer":10,"masks":10,"gloves":10},"0087130286":{"OBJECTID":38,"ID":"0087130286","NAME":"UPSON REGIONAL MEDICAL CENTER","ADDRESS":"801 W GORDON STREET","CITY":"THOMASTON","STATE":"GA","ZIP":"30286","ZIP4":"NOT AVAILABLE","TELEPHONE":"NOT AVAILABLE","TYPE":"GENERAL ACUTE CARE","STATUS":"OPEN","POPULATION":115,"COUNTY":"UPSON","COUNTYFIPS":"13293","COUNTRY":"USA","LATITUDE":32.886297701,"LONGITUDE":-84.3365069879999,"NAICS_CODE":"622110","NAICS_DESC":"GENERAL MEDICAL AND SURGICAL HOSPITALS","SOURCE":"http://www.gamap2care.info/","SOURCEDATE":1533772800000,"VAL_METHOD":"IMAGERY/OTHER","VAL_DATE":1425513600000,"WEBSITE":"NOT AVAILABLE","STATE_ID":"NOT AVAILABLE","ALT_NAME":"NOT AVAILABLE","ST_FIPS":"13","OWNER":"NOT AVAILABLE","TTL_STAFF":-999,"BEDS":115,"TRAUMA":"NOT AVAILABLE","HELIPAD":"N","img":"https://logo.clearbit.com/NOT AVAILABLE","santizer":10,"masks":10,"gloves":10},"0087531719":{"OBJECTID":39,"ID":"0087531719","NAME":"PHOEBE SUMTER MEDICAL CENTER","ADDRESS":"126 HIGHWAY 280 W","CITY":"AMERICUS","STATE":"GA","ZIP":"31719","ZIP4":"NOT AVAILABLE","TELEPHONE":"(229) 924-6011","TYPE":"GENERAL ACUTE CARE","STATUS":"OPEN","POPULATION":76,"COUNTY":"SUMTER","COUNTYFIPS":"13261","COUNTRY":"USA","LATITUDE":32.0669623380001,"LONGITUDE":-84.2560501999999,"NAICS_CODE":"622110","NAICS_DESC":"GENERAL MEDICAL AND SURGICAL HOSPITALS","SOURCE":"http://www.gamap2care.info/","SOURCEDATE":1533772800000,"VAL_METHOD":"IMAGERY/OTHER","VAL_DATE":1425859200000,"WEBSITE":"http://www.phoebeputney.com/PhoebeContentPage.aspx?nd=1479","STATE_ID":"NOT AVAILABLE","ALT_NAME":"NOT AVAILABLE","ST_FIPS":"13","OWNER":"NOT AVAILABLE","TTL_STAFF":-999,"BEDS":76,"TRAUMA":"NOT AVAILABLE","HELIPAD":"Y","img":"https://logo.clearbit.com/http://www.phoebeputney.com/PhoebeContentPage.aspx?nd=1479","santizer":10,"masks":10,"gloves":10},"0087931830":{"OBJECTID":40,"ID":"0087931830","NAME":"ROOSEVELT WARM SPRINGS LTAC HOSPITAL","ADDRESS":"6135 ROOSEVELT HIGHWAY","CITY":"WARM SPRINGS","STATE":"GA","ZIP":"31830","ZIP4":"NOT AVAILABLE","TELEPHONE":"(404) 655-5011","TYPE":"LONG TERM CARE","STATUS":"OPEN","POPULATION":32,"COUNTY":"MERIWETHER","COUNTYFIPS":"13199","COUNTRY":"USA","LATITUDE":32.887980741,"LONGITUDE":-84.6923449,"NAICS_CODE":"622310","NAICS_DESC":"SPECIALTY (EXCEPT PSYCHIATRIC AND SUBSTANCE ABUSE) HOSPITALS","SOURCE":"http://www.gamap2care.info/","SOURCEDATE":1533772800000,"VAL_METHOD":"IMAGERY/OTHER","VAL_DATE":1425859200000,"WEBSITE":"NOT AVAILABLE","STATE_ID":"NOT AVAILABLE","ALT_NAME":"NOT AVAILABLE","ST_FIPS":"13","OWNER":"NOT AVAILABLE","TTL_STAFF":-999,"BEDS":32,"TRAUMA":"NOT AVAILABLE","HELIPAD":"N","img":"https://logo.clearbit.com/NOT AVAILABLE","santizer":10,"masks":10,"gloves":10},"0090030265":{"OBJECTID":41,"ID":"0090030265","NAME":"SOUTHEASTERN REGIONAL MEDICAL CENTER","ADDRESS":"600 CELEBRATE LIFE PKWY","CITY":"NEWNAN","STATE":"GA","ZIP":"30265","ZIP4":"NOT AVAILABLE","TELEPHONE":"NOT AVAILABLE","TYPE":"GENERAL ACUTE CARE","STATUS":"OPEN","POPULATION":25,"COUNTY":"COWETA","COUNTYFIPS":"13077","COUNTRY":"USA","LATITUDE":33.3848346460001,"LONGITUDE":-84.757746692,"NAICS_CODE":"622110","NAICS_DESC":"GENERAL MEDICAL AND SURGICAL HOSPITALS","SOURCE":"http://www.gamap2care.info/","SOURCEDATE":1533772800000,"VAL_METHOD":"IMAGERY/OTHER","VAL_DATE":1425859200000,"WEBSITE":"http://www.cancercenter.com/southeastern/","STATE_ID":"NOT AVAILABLE","ALT_NAME":"NOT AVAILABLE","ST_FIPS":"13","OWNER":"PROPRIETARY","TTL_STAFF":-999,"BEDS":25,"TRAUMA":"NOT AVAILABLE","HELIPAD":"N","img":"https://logo.clearbit.com/http://www.cancercenter.com/southeastern/","santizer":10,"masks":10,"gloves":10},"0150754656":{"OBJECTID":42,"ID":"0150754656","NAME":"MAYO CLINIC HLTH SYSTM FRANCISCAN HLTHCARE SPARTA","ADDRESS":"310 W MAIN ST","CITY":"SPARTA","STATE":"WI","ZIP":"54656","ZIP4":"NOT AVAILABLE","TELEPHONE":"(608) 269-2132","TYPE":"CRITICAL ACCESS","STATUS":"OPEN","POPULATION":25,"COUNTY":"MONROE","COUNTYFIPS":"55081","COUNTRY":"USA","LATITUDE":43.9442259640001,"LONGITUDE":-90.8143835939999,"NAICS_CODE":"622110","NAICS_DESC":"GENERAL MEDICAL AND SURGICAL HOSPITALS","SOURCE":"https://www.dhs.wisconsin.gov/guide/hospital.htm","SOURCEDATE":1534118400000,"VAL_METHOD":"IMAGERY/OTHER","VAL_DATE":1427414400000,"WEBSITE":"NOT AVAILABLE","STATE_ID":"NOT AVAILABLE","ALT_NAME":"NOT AVAILABLE","ST_FIPS":"55","OWNER":"NOT AVAILABLE","TTL_STAFF":-999,"BEDS":25,"TRAUMA":"LEVEL IV","HELIPAD":"Y","img":"https://logo.clearbit.com/NOT AVAILABLE","santizer":10,"masks":10,"gloves":10},"0151253226":{"OBJECTID":43,"ID":"0151253226","NAME":"WHEATON FRANCISCAN WI HEART SPINE AND ORTHO","ADDRESS":"10000 WEST BLUEMOUND ROAD","CITY":"WAUWATOSA","STATE":"WI","ZIP":"53226","ZIP4":"NOT AVAILABLE","TELEPHONE":"(414) 778-7800","TYPE":"GENERAL ACUTE CARE","STATUS":"OPEN","POPULATION":40,"COUNTY":"MILWAUKEE","COUNTYFIPS":"55079","COUNTRY":"USA","LATITUDE":43.0358121520001,"LONGITUDE":-88.037265823,"NAICS_CODE":"622110","NAICS_DESC":"GENERAL MEDICAL AND SURGICAL HOSPITALS","SOURCE":"https://www.dhs.wisconsin.gov/guide/hospital.htm","SOURCEDATE":1534118400000,"VAL_METHOD":"IMAGERY/OTHER","VAL_DATE":1427414400000,"WEBSITE":"NOT AVAILABLE","STATE_ID":"NOT AVAILABLE","ALT_NAME":"WISCONSIN HEART HOSPITAL","ST_FIPS":"55","OWNER":"NOT AVAILABLE","TTL_STAFF":-999,"BEDS":40,"TRAUMA":"NOT AVAILABLE","HELIPAD":"N","img":"https://logo.clearbit.com/NOT AVAILABLE","santizer":10,"masks":10,"gloves":10},"0152354971":{"OBJECTID":44,"ID":"0152354971","NAME":"RIPON MEDICAL CENTER","ADDRESS":"845 PARKSIDE ST","CITY":"RIPON","STATE":"WI","ZIP":"54971","ZIP4":"NOT AVAILABLE","TELEPHONE":"(920) 748-3101","TYPE":"CRITICAL ACCESS","STATUS":"OPEN","POPULATION":18,"COUNTY":"FOND DU LAC","COUNTYFIPS":"55039","COUNTRY":"USA","LATITUDE":43.8348687480001,"LONGITUDE":-88.81800698,"NAICS_CODE":"622110","NAICS_DESC":"GENERAL MEDICAL AND SURGICAL HOSPITALS","SOURCE":"https://www.dhs.wisconsin.gov/guide/hospital.htm","SOURCEDATE":1534118400000,"VAL_METHOD":"IMAGERY/OTHER","VAL_DATE":1427414400000,"WEBSITE":"http://www.agnesian.com/locations/hospitals/ripon-medical-center","STATE_ID":"1024","ALT_NAME":"NOT AVAILABLE","ST_FIPS":"55","OWNER":"NOT AVAILABLE","TTL_STAFF":-999,"BEDS":18,"TRAUMA":"LEVEL IV","HELIPAD":"Y","img":"https://logo.clearbit.com/http://www.agnesian.com/locations/hospitals/ripon-medical-center","santizer":10,"masks":10,"gloves":10},"0159171301":{"OBJECTID":45,"ID":"0159171301","NAME":"COMPASS BEHAVIORAL CENTER OF ALEXANDRIA","ADDRESS":"6410 MASONIC DRIVE","CITY":"ALEXANDRIA","STATE":"LA","ZIP":"71301","ZIP4":"NOT AVAILABLE","TELEPHONE":"(318) 473-0035","TYPE":"GENERAL ACUTE CARE","STATUS":"OPEN","POPULATION":-999,"COUNTY":"RAPIDES","COUNTYFIPS":"22079","COUNTRY":"USA","LATITUDE":31.2521915580001,"LONGITUDE":-92.481987814,"NAICS_CODE":"622110","NAICS_DESC":"GENERAL MEDICAL AND SURGICAL HOSPITALS","SOURCE":"http://new.dhh.louisiana.gov/index.cfm/directory/category/169","SOURCEDATE":1534377600000,"VAL_METHOD":"IMAGERY/OTHER","VAL_DATE":1432944000000,"WEBSITE":"NOT AVAILABLE","STATE_ID":"NOT AVAILABLE","ALT_NAME":"NOT AVAILABLE","ST_FIPS":"22","OWNER":"NOT AVAILABLE","TTL_STAFF":-999,"BEDS":-999,"TRAUMA":"NOT AVAILABLE","HELIPAD":"N","img":"https://logo.clearbit.com/NOT AVAILABLE","santizer":10,"masks":10,"gloves":10},"0159670605":{"OBJECTID":46,"ID":"0159670605","NAME":"LAKE AREA MEDICAL CENTER","ADDRESS":"4200 NELSON ROAD","CITY":"LAKE CHARLES","STATE":"LA","ZIP":"70605","ZIP4":"NOT AVAILABLE","TELEPHONE":"(337) 474-6370","TYPE":"GENERAL ACUTE CARE","STATUS":"OPEN","POPULATION":-999,"COUNTY":"CALCASIEU","COUNTYFIPS":"22019","COUNTRY":"USA","LATITUDE":30.181132081,"LONGITUDE":-93.250349553,"NAICS_CODE":"622110","NAICS_DESC":"GENERAL MEDICAL AND SURGICAL HOSPITALS","SOURCE":"http://new.dhh.louisiana.gov/index.cfm/directory/category/169","SOURCEDATE":1534377600000,"VAL_METHOD":"IMAGERY/OTHER","VAL_DATE":1432944000000,"WEBSITE":"http://www.lakeareamc.com/Lake-Area-Medical-Center/home.aspx","STATE_ID":"NOT AVAILABLE","ALT_NAME":"NOT AVAILABLE","ST_FIPS":"22","OWNER":"NOT AVAILABLE","TTL_STAFF":-999,"BEDS":-999,"TRAUMA":"NOT AVAILABLE","HELIPAD":"Y","img":"https://logo.clearbit.com/http://www.lakeareamc.com/Lake-Area-Medical-Center/home.aspx","santizer":10,"masks":10,"gloves":10},"0160270505":{"OBJECTID":47,"ID":"0160270505","NAME":"SPECIALTY HOSPITAL","ADDRESS":"309 JACKSON STREET","CITY":"MONROE","STATE":"LA","ZIP":"70505","ZIP4":"NOT AVAILABLE","TELEPHONE":"(318) 966-4126","TYPE":"GENERAL ACUTE CARE","STATUS":"OPEN","POPULATION":-999,"COUNTY":"OUACHITA","COUNTYFIPS":"22073","COUNTRY":"USA","LATITUDE":32.4998212420001,"LONGITUDE":-92.114554227,"NAICS_CODE":"622110","NAICS_DESC":"GENERAL MEDICAL AND SURGICAL HOSPITALS","SOURCE":"http://new.dhh.louisiana.gov/index.cfm/directory/category/169","SOURCEDATE":1534377600000,"VAL_METHOD":"IMAGERY/OTHER","VAL_DATE":1432944000000,"WEBSITE":"NOT AVAILABLE","STATE_ID":"NOT AVAILABLE","ALT_NAME":"NOT AVAILABLE","ST_FIPS":"22","OWNER":"NOT AVAILABLE","TTL_STAFF":-999,"BEDS":-999,"TRAUMA":"NOT AVAILABLE","HELIPAD":"N","img":"https://logo.clearbit.com/NOT AVAILABLE","santizer":10,"masks":10,"gloves":10},"0160970056":{"OBJECTID":48,"ID":"0160970056","NAME":"UNITED MEDICAL HEALTHWEST-NEW ORLEANS","ADDRESS":"3201 WALL BOULEVARD","CITY":"GRETNA","STATE":"LA","ZIP":"70056","ZIP4":"NOT AVAILABLE","TELEPHONE":"(504) 433-5551","TYPE":"REHABILITATION","STATUS":"OPEN","POPULATION":-999,"COUNTY":"JEFFERSON","COUNTYFIPS":"22051","COUNTRY":"USA","LATITUDE":29.865979474,"LONGITUDE":-90.03069185,"NAICS_CODE":"622310","NAICS_DESC":"REHABILITATION HOSPITALS (EXCEPT ALCOHOLISM, DRUG ADDICTION)","SOURCE":"http://new.dhh.louisiana.gov/index.cfm/directory/category/169","SOURCEDATE":1534377600000,"VAL_METHOD":"IMAGERY/OTHER","VAL_DATE":1432857600000,"WEBSITE":"http://umrhospital.com/locations/new-orleans/","STATE_ID":"NOT AVAILABLE","ALT_NAME":"NOT AVAILABLE","ST_FIPS":"22","OWNER":"PROPRIETARY","TTL_STAFF":-999,"BEDS":-999,"TRAUMA":"NOT AVAILABLE","HELIPAD":"N","img":"https://logo.clearbit.com/http://umrhospital.com/locations/new-orleans/","santizer":10,"masks":10,"gloves":10},"0161070071":{"OBJECTID":49,"ID":"0161070071","NAME":"BEACON BEHAVIORAL HOSPITAL","ADDRESS":"2471 LOUISIANA AVE","CITY":"LUTCHER","STATE":"LA","ZIP":"70071","ZIP4":"NOT AVAILABLE","TELEPHONE":"(225) 258-6103","TYPE":"PSYCHIATRIC","STATUS":"OPEN","POPULATION":-999,"COUNTY":"ST. JAMES","COUNTYFIPS":"22093","COUNTRY":"USA","LATITUDE":30.046654335,"LONGITUDE":-90.70017298,"NAICS_CODE":"622210","NAICS_DESC":"PSYCHIATRIC AND SUBSTANCE ABUSE HOSPITALS","SOURCE":"http://new.dhh.louisiana.gov/index.cfm/directory/category/169","SOURCEDATE":1534377600000,"VAL_METHOD":"IMAGERY/OTHER","VAL_DATE":1432857600000,"WEBSITE":"http://beaconbh.com/","STATE_ID":"NOT AVAILABLE","ALT_NAME":"NOT AVAILABLE","ST_FIPS":"22","OWNER":"PROPRIETARY","TTL_STAFF":-999,"BEDS":-999,"TRAUMA":"NOT AVAILABLE","HELIPAD":"Y","img":"https://logo.clearbit.com/http://beaconbh.com/","santizer":10,"masks":10,"gloves":10},"0162170535":{"OBJECTID":50,"ID":"0162170535","NAME":"KAILO BEHAVIORAL HOSPITAL","ADDRESS":"3859 HWY 190","CITY":"EUNICE","STATE":"LA","ZIP":"70535","ZIP4":"NOT AVAILABLE","TELEPHONE":"(337) 466-7600","TYPE":"GENERAL ACUTE CARE","STATUS":"CLOSED","POPULATION":-999,"COUNTY":"ACADIA","COUNTYFIPS":"22001","COUNTRY":"USA","LATITUDE":30.448053063,"LONGITUDE":-92.4115247839999,"NAICS_CODE":"622110","NAICS_DESC":"GENERAL MEDICAL AND SURGICAL HOSPITALS","SOURCE":"http://new.dhh.louisiana.gov/index.cfm/directory/category/169","SOURCEDATE":1431907200000,"VAL_METHOD":"IMAGERY/OTHER","VAL_DATE":1432944000000,"WEBSITE":"NOT AVAILABLE","STATE_ID":"NOT AVAILABLE","ALT_NAME":"NOT AVAILABLE","ST_FIPS":"22","OWNER":"NOT AVAILABLE","TTL_STAFF":-999,"BEDS":-999,"TRAUMA":"NOT AVAILABLE","HELIPAD":"N","img":"https://logo.clearbit.com/NOT AVAILABLE","santizer":10,"masks":10,"gloves":10},"0163170127":{"OBJECTID":51,"ID":"0163170127","NAME":"NEW ORLEANS EAST HOSPITAL","ADDRESS":"5620 READ BLVD","CITY":"NEW ORLEANS","STATE":"LA","ZIP":"70127","ZIP4":"NOT AVAILABLE","TELEPHONE":"(504) 241-2664","TYPE":"GENERAL ACUTE CARE","STATUS":"OPEN","POPULATION":-999,"COUNTY":"ORLEANS","COUNTYFIPS":"22071","COUNTRY":"USA","LATITUDE":30.028976302,"LONGITUDE":-89.975170479,"NAICS_CODE":"622110","NAICS_DESC":"GENERAL MEDICAL AND SURGICAL HOSPITALS","SOURCE":"http://new.dhh.louisiana.gov/index.cfm/directory/category/169","SOURCEDATE":1534377600000,"VAL_METHOD":"IMAGERY/OTHER","VAL_DATE":1432944000000,"WEBSITE":"http://www.noehospital.org/main/intro.php","STATE_ID":"NOT AVAILABLE","ALT_NAME":"NOT AVAILABLE","ST_FIPS":"22","OWNER":"NOT AVAILABLE","TTL_STAFF":-999,"BEDS":-999,"TRAUMA":"NOT AVAILABLE","HELIPAD":"Y","img":"https://logo.clearbit.com/http://www.noehospital.org/main/intro.php","santizer":10,"masks":10,"gloves":10},"0163570394":{"OBJECTID":52,"ID":"0163570394","NAME":"OCSHNER ST. ANNE GENERAL HOSPITAL","ADDRESS":"4608 HIGHWAY 1","CITY":"RACELAND","STATE":"LA","ZIP":"70394","ZIP4":"NOT AVAILABLE","TELEPHONE":"(985) 537-8377","TYPE":"GENERAL ACUTE CARE","STATUS":"OPEN","POPULATION":38,"COUNTY":"LAFOURCHE","COUNTYFIPS":"22057","COUNTRY":"USA","LATITUDE":29.7026714240001,"LONGITUDE":-90.565253898,"NAICS_CODE":"622110","NAICS_DESC":"GENERAL MEDICAL AND SURGICAL HOSPITALS","SOURCE":"http://new.dhh.louisiana.gov/index.cfm/directory/category/169","SOURCEDATE":1534377600000,"VAL_METHOD":"IMAGERY/OTHER","VAL_DATE":1432944000000,"WEBSITE":"https://www.ochsner.org/locations/ochsner-st-anne/","STATE_ID":"NOT AVAILABLE","ALT_NAME":"NOT AVAILABLE","ST_FIPS":"22","OWNER":"NOT AVAILABLE","TTL_STAFF":-999,"BEDS":38,"TRAUMA":"NOT AVAILABLE","HELIPAD":"Y","img":"https://logo.clearbit.com/https://www.ochsner.org/locations/ochsner-st-anne/","santizer":10,"masks":10,"gloves":10},"0163670427":{"OBJECTID":53,"ID":"0163670427","NAME":"OUR LADY OF THE ANGELS HOSPITAL","ADDRESS":"433 PLAZA STREET","CITY":"BOGALUSA","STATE":"LA","ZIP":"70427","ZIP4":"NOT AVAILABLE","TELEPHONE":"(985) 730-6706","TYPE":"GENERAL ACUTE CARE","STATUS":"OPEN","POPULATION":-999,"COUNTY":"WASHINGTON","COUNTYFIPS":"22117","COUNTRY":"USA","LATITUDE":30.7782294,"LONGITUDE":-89.869341049,"NAICS_CODE":"622110","NAICS_DESC":"GENERAL MEDICAL AND SURGICAL HOSPITALS","SOURCE":"http://new.dhh.louisiana.gov/index.cfm/directory/category/169","SOURCEDATE":1534377600000,"VAL_METHOD":"IMAGERY/OTHER","VAL_DATE":1432944000000,"WEBSITE":"NOT AVAILABLE","STATE_ID":"NOT AVAILABLE","ALT_NAME":"NOT AVAILABLE","ST_FIPS":"22","OWNER":"NOT AVAILABLE","TTL_STAFF":-999,"BEDS":-999,"TRAUMA":"NOT AVAILABLE","HELIPAD":"N","img":"https://logo.clearbit.com/NOT AVAILABLE","santizer":10,"masks":10,"gloves":10},"0164970748":{"OBJECTID":54,"ID":"0164970748","NAME":"FELICIANA FORENSIC FACILITY","ADDRESS":"4502 HWY 951","CITY":"JACKSON","STATE":"LA","ZIP":"70748","ZIP4":"NOT AVAILABLE","TELEPHONE":"(225) 634-0216","TYPE":"GENERAL ACUTE CARE","STATUS":"OPEN","POPULATION":-999,"COUNTY":"EAST FELICIANA","COUNTYFIPS":"22037","COUNTRY":"USA","LATITUDE":30.832635688,"LONGITUDE":-91.210660488,"NAICS_CODE":"622110","NAICS_DESC":"GENERAL MEDICAL AND SURGICAL HOSPITALS","SOURCE":"http://new.dhh.louisiana.gov/index.cfm/directory/category/169","SOURCEDATE":1534377600000,"VAL_METHOD":"IMAGERY/OTHER","VAL_DATE":1456358400000,"WEBSITE":"http://new.dhh.louisiana.gov/index.cfm/directory/detail/219","STATE_ID":"NOT AVAILABLE","ALT_NAME":"NOT AVAILABLE","ST_FIPS":"22","OWNER":"GOVERNMENT - STATE","TTL_STAFF":-999,"BEDS":-999,"TRAUMA":"NOT AVAILABLE","HELIPAD":"N","img":"https://logo.clearbit.com/http://new.dhh.louisiana.gov/index.cfm/directory/detail/219","santizer":10,"masks":10,"gloves":10},"0000000027":{"OBJECTID":55,"ID":"0000000027","NAME":"EVANS ARMY COMMUNITY HOSPITAL","ADDRESS":"1650 COCHRANE CIR","CITY":"FORT CARSON","STATE":"CO","ZIP":"80913","ZIP4":"NOT AVAILABLE","TELEPHONE":"NOT AVAILABLE","TYPE":"MILITARY","STATUS":"OPEN","POPULATION":-999,"COUNTY":"EL PASO","COUNTYFIPS":"08041","COUNTRY":"USA","LATITUDE":38.7191142830001,"LONGITUDE":-104.797068889,"NAICS_CODE":"622110","NAICS_DESC":"GENERAL MEDICAL AND SURGICAL HOSPITALS","SOURCE":"http://www.tricare.mil/mtf","SOURCEDATE":1554163200000,"VAL_METHOD":"IMAGERY/OTHER","VAL_DATE":1437696000000,"WEBSITE":"http://evans.amedd.army.mil/","STATE_ID":"NOT AVAILABLE","ALT_NAME":"NOT AVAILABLE","ST_FIPS":"08","OWNER":"GOVERNMENT - FEDERAL","TTL_STAFF":-999,"BEDS":-999,"TRAUMA":"NOT AVAILABLE","HELIPAD":"N","img":"https://logo.clearbit.com/http://evans.amedd.army.mil/","santizer":10,"masks":10,"gloves":10},"0000000035":{"OBJECTID":56,"ID":"0000000035","NAME":"ROBERT E. BUSH NAVAL HOSPITAL","ADDRESS":"STURGIS ST","CITY":"TWENTYNINE PALMS","STATE":"CA","ZIP":"92278","ZIP4":"NOT AVAILABLE","TELEPHONE":"NOT AVAILABLE","TYPE":"MILITARY","STATUS":"OPEN","POPULATION":-999,"COUNTY":"SAN BERNARDINO","COUNTYFIPS":"06071","COUNTRY":"USA","LATITUDE":34.227066467,"LONGITUDE":-116.04879378,"NAICS_CODE":"622110","NAICS_DESC":"GENERAL MEDICAL AND SURGICAL HOSPITALS","SOURCE":"http://www.tricare.mil/mtf","SOURCEDATE":1554163200000,"VAL_METHOD":"IMAGERY/OTHER","VAL_DATE":1437696000000,"WEBSITE":"http://www.med.navy.mil/sites/nhtp/Pages/default.aspx","STATE_ID":"NOT AVAILABLE","ALT_NAME":"NOT AVAILABLE","ST_FIPS":"06","OWNER":"GOVERNMENT - FEDERAL","TTL_STAFF":-999,"BEDS":-999,"TRAUMA":"NOT AVAILABLE","HELIPAD":"Y","img":"https://logo.clearbit.com/http://www.med.navy.mil/sites/nhtp/Pages/default.aspx","santizer":10,"masks":10,"gloves":10},"0000493703":{"OBJECTID":57,"ID":"0000493703","NAME":"VA CENTRAL CALIFORNIA HEALTH CARE SYSTEM","ADDRESS":"2615 E CLINTON AVE","CITY":"FRESNO","STATE":"CA","ZIP":"93703","ZIP4":"NOT AVAILABLE","TELEPHONE":"(559) 225-6100","TYPE":"MILITARY","STATUS":"OPEN","POPULATION":-999,"COUNTY":"FRESNO","COUNTYFIPS":"06019","COUNTRY":"USA","LATITUDE":36.7732504310001,"LONGITUDE":-119.779145083,"NAICS_CODE":"622110","NAICS_DESC":"GENERAL MEDICAL AND SURGICAL HOSPITALS","SOURCE":"https://www.va.gov/directory/guide/allstate.asp","SOURCEDATE":1537920000000,"VAL_METHOD":"IMAGERY/OTHER","VAL_DATE":1431475200000,"WEBSITE":"http://www.fresno.va.gov/","STATE_ID":"NOT AVAILABLE","ALT_NAME":"NOT AVAILABLE","ST_FIPS":"06","OWNER":"GOVERNMENT - FEDERAL","TTL_STAFF":-999,"BEDS":-999,"TRAUMA":"NOT AVAILABLE","HELIPAD":"N","img":"https://logo.clearbit.com/http://www.fresno.va.gov/","santizer":10,"masks":10,"gloves":10},"0013402908":{"OBJECTID":58,"ID":"0013402908","NAME":"VA MEDICAL CENTER - PROVIDENCE","ADDRESS":"830 CHALKSTONE AVE","CITY":"PROVIDENCE","STATE":"RI","ZIP":"02908","ZIP4":"NOT AVAILABLE","TELEPHONE":"NOT AVAILABLE","TYPE":"GENERAL ACUTE CARE","STATUS":"OPEN","POPULATION":-999,"COUNTY":"PROVIDENCE","COUNTYFIPS":"44007","COUNTRY":"USA","LATITUDE":41.8321390840001,"LONGITUDE":-71.4331495449999,"NAICS_CODE":"622110","NAICS_DESC":"GENERAL MEDICAL AND SURGICAL HOSPITALS","SOURCE":"https://www.va.gov/directory/guide/allstate.asp","SOURCEDATE":1537920000000,"VAL_METHOD":"IMAGERY/OTHER","VAL_DATE":1432598400000,"WEBSITE":"http://www.providence.va.gov/","STATE_ID":"NOT AVAILABLE","ALT_NAME":"NOT AVAILABLE","ST_FIPS":"44","OWNER":"GOVERNMENT - FEDERAL","TTL_STAFF":-999,"BEDS":-999,"TRAUMA":"NOT AVAILABLE","HELIPAD":"N","img":"https://logo.clearbit.com/http://www.providence.va.gov/","santizer":10,"masks":10,"gloves":10},"0015954660":{"OBJECTID":59,"ID":"0015954660","NAME":"VA MEDICAL CENTER - TOMAH","ADDRESS":"500 E VETERANS ST","CITY":"TOMAH","STATE":"WI","ZIP":"54660","ZIP4":"NOT AVAILABLE","TELEPHONE":"(608) 372-3971","TYPE":"MILITARY","STATUS":"OPEN","POPULATION":-999,"COUNTY":"MONROE","COUNTYFIPS":"55081","COUNTRY":"USA","LATITUDE":44.00308068,"LONGITUDE":-90.493319014,"NAICS_CODE":"622110","NAICS_DESC":"GENERAL MEDICAL AND SURGICAL HOSPITALS","SOURCE":"https://www.va.gov/directory/guide/allstate.asp","SOURCEDATE":1537920000000,"VAL_METHOD":"IMAGERY/OTHER","VAL_DATE":1432857600000,"WEBSITE":"http://www.tomah.va.gov/","STATE_ID":"NOT AVAILABLE","ALT_NAME":"NOT AVAILABLE","ST_FIPS":"55","OWNER":"GOVERNMENT - FEDERAL","TTL_STAFF":-999,"BEDS":-999,"TRAUMA":"NOT AVAILABLE","HELIPAD":"Y","img":"https://logo.clearbit.com/http://www.tomah.va.gov/","santizer":10,"masks":10,"gloves":10},"0000000085":{"OBJECTID":60,"ID":"0000000085","NAME":"EARL K LONG MEDICAL CENTER","ADDRESS":"5825 AIRLINE HWY","CITY":"BATON ROUGE","STATE":"LA","ZIP":"70806","ZIP4":"NOT AVAILABLE","TELEPHONE":"(225) 387-7000","TYPE":"GENERAL ACUTE CARE","STATUS":"CLOSED","POPULATION":-999,"COUNTY":"EAST BATON ROUGE","COUNTYFIPS":"22033","COUNTRY":"USA","LATITUDE":30.504578404,"LONGITUDE":-91.131364999,"NAICS_CODE":"622110","NAICS_DESC":"GENERAL MEDICAL AND SURGICAL HOSPITALS","SOURCE":"http://new.dhh.louisiana.gov/index.cfm/directory/category/169","SOURCEDATE":1431907200000,"VAL_METHOD":"IMAGERY/OTHER","VAL_DATE":1432252800000,"WEBSITE":"http://www.lsuhospitals.org/EKL.aspx","STATE_ID":"NOT AVAILABLE","ALT_NAME":"NOT AVAILABLE","ST_FIPS":"22","OWNER":"NOT AVAILABLE","TTL_STAFF":-999,"BEDS":-999,"TRAUMA":"NOT AVAILABLE","HELIPAD":"N","img":"https://logo.clearbit.com/http://www.lsuhospitals.org/EKL.aspx","santizer":10,"masks":10,"gloves":10},"0058796001":{"OBJECTID":61,"ID":"0058796001","NAME":"RESTPADD PSYCHIATRIC HEALTH FACILITY","ADDRESS":"2750 EUREKA WAY","CITY":"REDDING","STATE":"CA","ZIP":"96001","ZIP4":"NOT AVAILABLE","TELEPHONE":"(530) 262-6700","TYPE":"PSYCHIATRIC","STATUS":"OPEN","POPULATION":16,"COUNTY":"SHASTA","COUNTYFIPS":"06089","COUNTRY":"USA","LATITUDE":40.586595392,"LONGITUDE":-122.411974107,"NAICS_CODE":"622210","NAICS_DESC":"PSYCHIATRIC AND SUBSTANCE ABUSE HOSPITALS","SOURCE":"http://www.oshpd.ca.gov/HID/Facility-Listing.html","SOURCEDATE":1533686400000,"VAL_METHOD":"IMAGERY/OTHER","VAL_DATE":1455148800000,"WEBSITE":"http://www.restpadd.com/","STATE_ID":"NOT AVAILABLE","ALT_NAME":"NOT AVAILABLE","ST_FIPS":"06","OWNER":"PROPRIETARY","TTL_STAFF":-999,"BEDS":16,"TRAUMA":"NOT AVAILABLE","HELIPAD":"N","img":"https://logo.clearbit.com/http://www.restpadd.com/","santizer":10,"masks":10,"gloves":10},"0059093436":{"OBJECTID":62,"ID":"0059093436","NAME":"THE CHAMPION CENTER","ADDRESS":"303 SOUTH C STREET","CITY":"LOMPOC","STATE":"CA","ZIP":"93436","ZIP4":"NOT AVAILABLE","TELEPHONE":"(844) 394-3767","TYPE":"REHABILITATION","STATUS":"OPEN","POPULATION":34,"COUNTY":"SANTA BARBARA","COUNTYFIPS":"06083","COUNTRY":"USA","LATITUDE":34.6353716090001,"LONGITUDE":-120.452188325,"NAICS_CODE":"622310","NAICS_DESC":"REHABILITATION HOSPITALS (EXCEPT ALCOHOLISM, DRUG ADDICTION)","SOURCE":"http://www.oshpd.ca.gov/HID/Facility-Listing.html","SOURCEDATE":1533686400000,"VAL_METHOD":"IMAGERY/OTHER","VAL_DATE":1455667200000,"WEBSITE":"https://championrecovery.com/","STATE_ID":"NOT AVAILABLE","ALT_NAME":"NOT AVAILABLE","ST_FIPS":"06","OWNER":"PROPRIETARY","TTL_STAFF":-999,"BEDS":34,"TRAUMA":"NOT AVAILABLE","HELIPAD":"N","img":"https://logo.clearbit.com/https://championrecovery.com/","santizer":10,"masks":10,"gloves":10},"0023831825":{"OBJECTID":63,"ID":"0023831825","NAME":"STEWART WEBSTER HOSPITAL","ADDRESS":"580 ALSTON STREET","CITY":"RICHLAND","STATE":"GA","ZIP":"31825","ZIP4":"NOT AVAILABLE","TELEPHONE":"(229) 887-3366","TYPE":"CRITICAL ACCESS","STATUS":"CLOSED","POPULATION":25,"COUNTY":"STEWART","COUNTYFIPS":"13259","COUNTRY":"USA","LATITUDE":32.08616827,"LONGITUDE":-84.660699774,"NAICS_CODE":"622310","NAICS_DESC":"HOSPITALS, SPECIALTY (EXCEPT PSYCHIATRIC, SUBSTANCE ABUSE)","SOURCE":"http://www.gamap2care.info/Locator.html#","SOURCEDATE":1457395200000,"VAL_METHOD":"IMAGERY/OTHER","VAL_DATE":1457395200000,"WEBSITE":"http://www.stewartcountyga.gov/stewartwebsterhospital.htm","STATE_ID":"NOT AVAILABLE","ALT_NAME":"NOT AVAILABLE","ST_FIPS":"13","OWNER":"GOVERNMENT - DISTRICT/AUTHORITY","TTL_STAFF":-999,"BEDS":25,"TRAUMA":"NOT AVAILABLE","HELIPAD":"N","img":"https://logo.clearbit.com/http://www.stewartcountyga.gov/stewartwebsterhospital.htm","santizer":10,"masks":10,"gloves":10},"0021891761":{"OBJECTID":64,"ID":"0021891761","NAME":"KAISER ONTARIO MEDICAL CENTER CAMPUS","ADDRESS":"2295 S. VINEYARD AVENUE","CITY":"ONTARIO","STATE":"CA","ZIP":"91761","ZIP4":"NOT AVAILABLE","TELEPHONE":"NOT AVAILABLE","TYPE":"GENERAL ACUTE CARE","STATUS":"OPEN","POPULATION":176,"COUNTY":"SAN BERNARDINO","COUNTYFIPS":"06071","COUNTRY":"USA","LATITUDE":34.0320795600001,"LONGITUDE":-117.60859933,"NAICS_CODE":"622110","NAICS_DESC":"GENERAL MEDICAL AND SURGICAL HOSPITALS","SOURCE":"http://www.oshpd.ca.gov/HID/Facility-Listing.html","SOURCEDATE":1533686400000,"VAL_METHOD":"IMAGERY","VAL_DATE":1391990400000,"WEBSITE":"http://www.kaiserpermanente.org","STATE_ID":"NOT AVAILABLE","ALT_NAME":"NOT AVAILABLE","ST_FIPS":"06","OWNER":"NON-PROFIT","TTL_STAFF":-999,"BEDS":176,"TRAUMA":"NOT AVAILABLE","HELIPAD":"N","img":"https://logo.clearbit.com/http://www.kaiserpermanente.org","santizer":10,"masks":10,"gloves":10},"0025692354":{"OBJECTID":65,"ID":"0025692354","NAME":"LOMA LINDA UNIV. MED. CENTER EAST CAMPUS HOSPITAL","ADDRESS":"25333 BARTON ROAD","CITY":"LOMA LINDA","STATE":"CA","ZIP":"92354","ZIP4":"NOT AVAILABLE","TELEPHONE":"NOT AVAILABLE","TYPE":"GENERAL ACUTE CARE","STATUS":"OPEN","POPULATION":134,"COUNTY":"SAN BERNARDINO","COUNTYFIPS":"06071","COUNTRY":"USA","LATITUDE":34.047305635,"LONGITUDE":-117.251636776,"NAICS_CODE":"622110","NAICS_DESC":"GENERAL MEDICAL AND SURGICAL HOSPITALS","SOURCE":"http://www.oshpd.ca.gov/HID/Facility-Listing.html","SOURCEDATE":1533686400000,"VAL_METHOD":"IMAGERY","VAL_DATE":1391990400000,"WEBSITE":"http://www.llumc.edu","STATE_ID":"NOT AVAILABLE","ALT_NAME":"NOT AVAILABLE","ST_FIPS":"06","OWNER":"NON-PROFIT","TTL_STAFF":-999,"BEDS":134,"TRAUMA":"NOT AVAILABLE","HELIPAD":"N","img":"https://logo.clearbit.com/http://www.llumc.edu","santizer":10,"masks":10,"gloves":10},"0044792404":{"OBJECTID":66,"ID":"0044792404","NAME":"ST. BERNARDINE MEDICAL CENTER","ADDRESS":"2101 NORTH WATERMAN AVENUE","CITY":"SAN BERNARDINO","STATE":"CA","ZIP":"92404","ZIP4":"NOT AVAILABLE","TELEPHONE":"NOT AVAILABLE","TYPE":"GENERAL ACUTE CARE","STATUS":"OPEN","POPULATION":342,"COUNTY":"SAN BERNARDINO","COUNTYFIPS":"06071","COUNTRY":"USA","LATITUDE":34.1346723570001,"LONGITUDE":-117.277019975,"NAICS_CODE":"622110","NAICS_DESC":"GENERAL MEDICAL AND SURGICAL HOSPITALS","SOURCE":"http://www.oshpd.ca.gov/HID/Facility-Listing.html","SOURCEDATE":1533686400000,"VAL_METHOD":"IMAGERY","VAL_DATE":1391990400000,"WEBSITE":"http://www.stbernardinemedicalcenter.com","STATE_ID":"NOT AVAILABLE","ALT_NAME":"NOT AVAILABLE","ST_FIPS":"06","OWNER":"NON-PROFIT","TTL_STAFF":-999,"BEDS":342,"TRAUMA":"NOT AVAILABLE","HELIPAD":"N","img":"https://logo.clearbit.com/http://www.stbernardinemedicalcenter.com","santizer":10,"masks":10,"gloves":10},"0020092120":{"OBJECTID":67,"ID":"0020092120","NAME":"KAISER FND HOSP - SAN DIEGO","ADDRESS":"4647 ZION AVENUE","CITY":"SAN DIEGO","STATE":"CA","ZIP":"92120","ZIP4":"NOT AVAILABLE","TELEPHONE":"NOT AVAILABLE","TYPE":"GENERAL ACUTE CARE","STATUS":"OPEN","POPULATION":414,"COUNTY":"SAN DIEGO","COUNTYFIPS":"06073","COUNTRY":"USA","LATITUDE":32.7915625750001,"LONGITUDE":-117.095159549,"NAICS_CODE":"622110","NAICS_DESC":"GENERAL MEDICAL AND SURGICAL HOSPITALS","SOURCE":"http://www.oshpd.ca.gov/HID/Facility-Listing.html","SOURCEDATE":1533686400000,"VAL_METHOD":"IMAGERY/OTHER","VAL_DATE":1391990400000,"WEBSITE":"http://www.kaiserpermanente.org","STATE_ID":"NOT AVAILABLE","ALT_NAME":"NOT AVAILABLE","ST_FIPS":"06","OWNER":"NON-PROFIT","TTL_STAFF":-999,"BEDS":414,"TRAUMA":"NOT AVAILABLE","HELIPAD":"N","img":"https://logo.clearbit.com/http://www.kaiserpermanente.org","santizer":10,"masks":10,"gloves":10},"0040992037":{"OBJECTID":68,"ID":"0040992037","NAME":"SCRIPPS GREEN HOSPITAL","ADDRESS":"10666 NORTH TORREY PINES ROAD","CITY":"LA JOLLA","STATE":"CA","ZIP":"92037","ZIP4":"NOT AVAILABLE","TELEPHONE":"NOT AVAILABLE","TYPE":"GENERAL ACUTE CARE","STATUS":"OPEN","POPULATION":173,"COUNTY":"SAN DIEGO","COUNTYFIPS":"06073","COUNTRY":"USA","LATITUDE":32.896858901,"LONGITUDE":-117.24287107,"NAICS_CODE":"622110","NAICS_DESC":"GENERAL MEDICAL AND SURGICAL HOSPITALS","SOURCE":"http://www.oshpd.ca.gov/HID/Facility-Listing.html","SOURCEDATE":1533686400000,"VAL_METHOD":"IMAGERY","VAL_DATE":1391990400000,"WEBSITE":"http://www.scrippshealth.org","STATE_ID":"NOT AVAILABLE","ALT_NAME":"NOT AVAILABLE","ST_FIPS":"06","OWNER":"NON-PROFIT","TTL_STAFF":-999,"BEDS":173,"TRAUMA":"NOT AVAILABLE","HELIPAD":"N","img":"https://logo.clearbit.com/http://www.scrippshealth.org","santizer":10,"masks":10,"gloves":10},"0041092024":{"OBJECTID":69,"ID":"0041092024","NAME":"SCRIPPS MEMORIAL HOSPITAL - ENCINITAS","ADDRESS":"354 SANTA FE DRIVE","CITY":"ENCINITAS","STATE":"CA","ZIP":"92024","ZIP4":"NOT AVAILABLE","TELEPHONE":"NOT AVAILABLE","TYPE":"GENERAL ACUTE CARE","STATUS":"OPEN","POPULATION":194,"COUNTY":"SAN DIEGO","COUNTYFIPS":"06073","COUNTRY":"USA","LATITUDE":33.0373447760001,"LONGITUDE":-117.284183383,"NAICS_CODE":"622110","NAICS_DESC":"GENERAL MEDICAL AND SURGICAL HOSPITALS","SOURCE":"http://www.oshpd.ca.gov/HID/Facility-Listing.html","SOURCEDATE":1533686400000,"VAL_METHOD":"IMAGERY","VAL_DATE":1391990400000,"WEBSITE":"http://www.scripps.org","STATE_ID":"NOT AVAILABLE","ALT_NAME":"NOT AVAILABLE","ST_FIPS":"06","OWNER":"NON-PROFIT","TTL_STAFF":-999,"BEDS":194,"TRAUMA":"NOT AVAILABLE","HELIPAD":"Y","img":"https://logo.clearbit.com/http://www.scripps.org","santizer":10,"masks":10,"gloves":10},"0042292123":{"OBJECTID":70,"ID":"0042292123","NAME":"SHARP MARY BIRCH HOSPITAL FOR WOMEN AND NEWBORNS","ADDRESS":"3003 HEALTH CENTER DRIVE","CITY":"SAN DIEGO","STATE":"CA","ZIP":"92123","ZIP4":"NOT AVAILABLE","TELEPHONE":"NOT AVAILABLE","TYPE":"WOMEN","STATUS":"OPEN","POPULATION":206,"COUNTY":"SAN DIEGO","COUNTYFIPS":"06073","COUNTRY":"USA","LATITUDE":32.7982957780001,"LONGITUDE":-117.154977819,"NAICS_CODE":"622110","NAICS_DESC":"GENERAL MEDICAL AND SURGICAL HOSPITALS","SOURCE":"http://www.oshpd.ca.gov/HID/Facility-Listing.html","SOURCEDATE":1533686400000,"VAL_METHOD":"IMAGERY/OTHER","VAL_DATE":1391990400000,"WEBSITE":"http://www.sharp.com","STATE_ID":"NOT AVAILABLE","ALT_NAME":"NOT AVAILABLE","ST_FIPS":"06","OWNER":"NON-PROFIT","TTL_STAFF":-999,"BEDS":206,"TRAUMA":"NOT AVAILABLE","HELIPAD":"Y","img":"https://logo.clearbit.com/http://www.sharp.com","santizer":10,"masks":10,"gloves":10},"0051092103":{"OBJECTID":71,"ID":"0051092103","NAME":"UC SAN DIEGO HEALTH HILLCREST - HILLCREST MEDICAL CENTER","ADDRESS":"200 WEST ARBOR DRIVE","CITY":"SAN DIEGO","STATE":"CA","ZIP":"92103","ZIP4":"NOT AVAILABLE","TELEPHONE":"NOT AVAILABLE","TYPE":"GENERAL ACUTE CARE","STATUS":"OPEN","POPULATION":390,"COUNTY":"SAN DIEGO","COUNTYFIPS":"06073","COUNTRY":"USA","LATITUDE":32.754770233,"LONGITUDE":-117.165731384,"NAICS_CODE":"622110","NAICS_DESC":"GENERAL MEDICAL AND SURGICAL HOSPITALS","SOURCE":"http://www.oshpd.ca.gov/HID/Facility-Listing.html","SOURCEDATE":1533686400000,"VAL_METHOD":"IMAGERY","VAL_DATE":1391990400000,"WEBSITE":"https://health.ucsd.edu/locations/Pages/hillcrest.aspx","STATE_ID":"NOT AVAILABLE","ALT_NAME":"UNIVERSITY OF CALIF-SAN DIEGO MEDICAL CENTER","ST_FIPS":"06","OWNER":"NON-PROFIT","TTL_STAFF":-999,"BEDS":390,"TRAUMA":"LEVEL I","HELIPAD":"Y","img":"https://logo.clearbit.com/https://health.ucsd.edu/locations/Pages/hillcrest.aspx","santizer":10,"masks":10,"gloves":10},"0004894118":{"OBJECTID":72,"ID":"0004894118","NAME":"CALIFORNIA PACIFIC MED CTR-CALIFORNIA WEST","ADDRESS":"3700 CALIFORNIA STREET","CITY":"SAN FRANCISCO","STATE":"CA","ZIP":"94118","ZIP4":"NOT AVAILABLE","TELEPHONE":"NOT AVAILABLE","TYPE":"GENERAL ACUTE CARE","STATUS":"OPEN","POPULATION":299,"COUNTY":"SAN FRANCISCO","COUNTYFIPS":"06075","COUNTRY":"USA","LATITUDE":37.786509197,"LONGITUDE":-122.456030633,"NAICS_CODE":"622110","NAICS_DESC":"GENERAL MEDICAL AND SURGICAL HOSPITALS","SOURCE":"http://www.oshpd.ca.gov/HID/Facility-Listing.html","SOURCEDATE":1533686400000,"VAL_METHOD":"IMAGERY/OTHER","VAL_DATE":1391990400000,"WEBSITE":"http://www.cpmc.org","STATE_ID":"NOT AVAILABLE","ALT_NAME":"NOT AVAILABLE","ST_FIPS":"06","OWNER":"NON-PROFIT","TTL_STAFF":-999,"BEDS":299,"TRAUMA":"NOT AVAILABLE","HELIPAD":"N","img":"https://logo.clearbit.com/http://www.cpmc.org","santizer":10,"masks":10,"gloves":10},"0005094115":{"OBJECTID":73,"ID":"0005094115","NAME":"CALIFORNIA PACIFIC MED CTR-PACIFIC CAMPUS","ADDRESS":"2333 BUCHANAN STREET","CITY":"SAN FRANCISCO","STATE":"CA","ZIP":"94115","ZIP4":"NOT AVAILABLE","TELEPHONE":"NOT AVAILABLE","TYPE":"GENERAL ACUTE CARE","STATUS":"OPEN","POPULATION":309,"COUNTY":"SAN FRANCISCO","COUNTYFIPS":"06075","COUNTRY":"USA","LATITUDE":37.7907045380001,"LONGITUDE":-122.431294533,"NAICS_CODE":"622110","NAICS_DESC":"GENERAL MEDICAL AND SURGICAL HOSPITALS","SOURCE":"http://www.oshpd.ca.gov/HID/Facility-Listing.html","SOURCEDATE":1533686400000,"VAL_METHOD":"IMAGERY/OTHER","VAL_DATE":1391990400000,"WEBSITE":"http://www.cpmc.org","STATE_ID":"NOT AVAILABLE","ALT_NAME":"NOT AVAILABLE","ST_FIPS":"06","OWNER":"NON-PROFIT","TTL_STAFF":-999,"BEDS":309,"TRAUMA":"NOT AVAILABLE","HELIPAD":"N","img":"https://logo.clearbit.com/http://www.cpmc.org","santizer":10,"masks":10,"gloves":10},"0046594117":{"OBJECTID":74,"ID":"0046594117","NAME":"ST. MARY'S MEDICAL CENTER, SAN FRANCISCO","ADDRESS":"450 STANYAN STREET","CITY":"SAN FRANCISCO","STATE":"CA","ZIP":"94117","ZIP4":"NOT AVAILABLE","TELEPHONE":"NOT AVAILABLE","TYPE":"GENERAL ACUTE CARE","STATUS":"OPEN","POPULATION":403,"COUNTY":"SAN FRANCISCO","COUNTYFIPS":"06075","COUNTRY":"USA","LATITUDE":37.77408876,"LONGITUDE":-122.453751642,"NAICS_CODE":"622110","NAICS_DESC":"GENERAL MEDICAL AND SURGICAL HOSPITALS","SOURCE":"http://www.oshpd.ca.gov/HID/Facility-Listing.html","SOURCEDATE":1533686400000,"VAL_METHOD":"IMAGERY/OTHER","VAL_DATE":1391990400000,"WEBSITE":"http://www.stmarysmedicalcenter.org","STATE_ID":"NOT AVAILABLE","ALT_NAME":"NOT AVAILABLE","ST_FIPS":"06","OWNER":"NON-PROFIT","TTL_STAFF":-999,"BEDS":403,"TRAUMA":"NOT AVAILABLE","HELIPAD":"N","img":"https://logo.clearbit.com/http://www.stmarysmedicalcenter.org","santizer":10,"masks":10,"gloves":10},"0020595403":{"OBJECTID":75,"ID":"0020595403","NAME":"KAISER FND HOSP - SANTA ROSA","ADDRESS":"401 BICENTENNIAL WAY","CITY":"SANTA ROSA","STATE":"CA","ZIP":"95403","ZIP4":"NOT AVAILABLE","TELEPHONE":"NOT AVAILABLE","TYPE":"GENERAL ACUTE CARE","STATUS":"OPEN","POPULATION":173,"COUNTY":"SONOMA","COUNTYFIPS":"06097","COUNTRY":"USA","LATITUDE":38.471793006,"LONGITUDE":-122.72706436,"NAICS_CODE":"622110","NAICS_DESC":"GENERAL MEDICAL AND SURGICAL HOSPITALS","SOURCE":"http://www.oshpd.ca.gov/HID/Facility-Listing.html","SOURCEDATE":1533686400000,"VAL_METHOD":"IMAGERY","VAL_DATE":1391990400000,"WEBSITE":"http://www.kaiserpermanente.org","STATE_ID":"NOT AVAILABLE","ALT_NAME":"NOT AVAILABLE","ST_FIPS":"06","OWNER":"NON-PROFIT","TTL_STAFF":-999,"BEDS":173,"TRAUMA":"NOT AVAILABLE","HELIPAD":"N","img":"https://logo.clearbit.com/http://www.kaiserpermanente.org","santizer":10,"masks":10,"gloves":10},"0019594590":{"OBJECTID":76,"ID":"0019594590","NAME":"KAISER FND HOSP - REHABILITATION CENTER VALLEJO","ADDRESS":"975 SERENO DRIVE","CITY":"VALLEJO","STATE":"CA","ZIP":"94590","ZIP4":"NOT AVAILABLE","TELEPHONE":"NOT AVAILABLE","TYPE":"GENERAL ACUTE CARE","STATUS":"OPEN","POPULATION":248,"COUNTY":"SOLANO","COUNTYFIPS":"06095","COUNTRY":"USA","LATITUDE":38.12690208,"LONGITUDE":-122.248377304,"NAICS_CODE":"622110","NAICS_DESC":"GENERAL MEDICAL AND SURGICAL HOSPITALS","SOURCE":"http://www.oshpd.ca.gov/HID/Facility-Listing.html","SOURCEDATE":1533686400000,"VAL_METHOD":"IMAGERY/OTHER","VAL_DATE":1391990400000,"WEBSITE":"http://www.kaiserpermanente.org","STATE_ID":"NOT AVAILABLE","ALT_NAME":"NOT AVAILABLE","ST_FIPS":"06","OWNER":"NON-PROFIT","TTL_STAFF":-999,"BEDS":248,"TRAUMA":"NOT AVAILABLE","HELIPAD":"N","img":"https://logo.clearbit.com/http://www.kaiserpermanente.org","santizer":10,"masks":10,"gloves":10},"0053195695":{"OBJECTID":77,"ID":"0053195695","NAME":"WOODLAND MEMORIAL HOSPITAL","ADDRESS":"1325 COTTONWOOD STREET","CITY":"WOODLAND","STATE":"CA","ZIP":"95695","ZIP4":"NOT AVAILABLE","TELEPHONE":"NOT AVAILABLE","TYPE":"GENERAL ACUTE CARE","STATUS":"OPEN","POPULATION":108,"COUNTY":"YOLO","COUNTYFIPS":"06113","COUNTRY":"USA","LATITUDE":38.663925024,"LONGITUDE":-121.792145249,"NAICS_CODE":"622110","NAICS_DESC":"GENERAL MEDICAL AND SURGICAL HOSPITALS","SOURCE":"http://www.oshpd.ca.gov/HID/Facility-Listing.html","SOURCEDATE":1533686400000,"VAL_METHOD":"IMAGERY/OTHER","VAL_DATE":1391990400000,"WEBSITE":"http://www.woodlandhealthcare.org","STATE_ID":"NOT AVAILABLE","ALT_NAME":"NOT AVAILABLE","ST_FIPS":"06","OWNER":"NON-PROFIT","TTL_STAFF":-999,"BEDS":108,"TRAUMA":"NOT AVAILABLE","HELIPAD":"N","img":"https://logo.clearbit.com/http://www.woodlandhealthcare.org","santizer":10,"masks":10,"gloves":10},"0001294609":{"OBJECTID":78,"ID":"0001294609","NAME":"ALTA BATES SUMMIT MED CTR-SUMMIT CAMPUS-SUMMIT","ADDRESS":"3100 SUMMIT STREET","CITY":"OAKLAND","STATE":"CA","ZIP":"94609","ZIP4":"NOT AVAILABLE","TELEPHONE":"NOT AVAILABLE","TYPE":"GENERAL ACUTE CARE","STATUS":"OPEN","POPULATION":75,"COUNTY":"ALAMEDA","COUNTYFIPS":"06001","COUNTRY":"USA","LATITUDE":37.8201396110001,"LONGITUDE":-122.26400415,"NAICS_CODE":"622110","NAICS_DESC":"GENERAL MEDICAL AND SURGICAL HOSPITALS","SOURCE":"http://www.oshpd.ca.gov/HID/Facility-Listing.html","SOURCEDATE":1533686400000,"VAL_METHOD":"IMAGERY/OTHER","VAL_DATE":1391990400000,"WEBSITE":"http://www.altabatessummit.com","STATE_ID":"NOT AVAILABLE","ALT_NAME":"NOT AVAILABLE","ST_FIPS":"06","OWNER":"NON-PROFIT","TTL_STAFF":-999,"BEDS":75,"TRAUMA":"NOT AVAILABLE","HELIPAD":"N","img":"https://logo.clearbit.com/http://www.altabatessummit.com","santizer":10,"masks":10,"gloves":10},"0039794578":{"OBJECTID":79,"ID":"0039794578","NAME":"SAN LEANDRO HOSPITAL","ADDRESS":"13855 EAST 14TH STREET","CITY":"SAN LEANDRO","STATE":"CA","ZIP":"94578","ZIP4":"NOT AVAILABLE","TELEPHONE":"NOT AVAILABLE","TYPE":"GENERAL ACUTE CARE","STATUS":"OPEN","POPULATION":93,"COUNTY":"ALAMEDA","COUNTYFIPS":"06001","COUNTRY":"USA","LATITUDE":37.712288347,"LONGITUDE":-122.143493689,"NAICS_CODE":"622110","NAICS_DESC":"GENERAL MEDICAL AND SURGICAL HOSPITALS","SOURCE":"http://www.oshpd.ca.gov/HID/Facility-Listing.html","SOURCEDATE":1533686400000,"VAL_METHOD":"IMAGERY/OTHER","VAL_DATE":1391990400000,"WEBSITE":"http://edenmedcenter.org","STATE_ID":"NOT AVAILABLE","ALT_NAME":"NOT AVAILABLE","ST_FIPS":"06","OWNER":"NON-PROFIT","TTL_STAFF":-999,"BEDS":93,"TRAUMA":"NOT AVAILABLE","HELIPAD":"N","img":"https://logo.clearbit.com/http://edenmedcenter.org","santizer":10,"masks":10,"gloves":10},"0046694545":{"OBJECTID":80,"ID":"0046694545","NAME":"ST. ROSE HOSPITAL","ADDRESS":"27200 CALAROGA AVENUE","CITY":"HAYWARD","STATE":"CA","ZIP":"94545","ZIP4":"NOT AVAILABLE","TELEPHONE":"NOT AVAILABLE","TYPE":"GENERAL ACUTE CARE","STATUS":"OPEN","POPULATION":217,"COUNTY":"ALAMEDA","COUNTYFIPS":"06001","COUNTRY":"USA","LATITUDE":37.6334419930001,"LONGITUDE":-122.087912534,"NAICS_CODE":"622110","NAICS_DESC":"GENERAL MEDICAL AND SURGICAL HOSPITALS","SOURCE":"http://www.oshpd.ca.gov/HID/Facility-Listing.html","SOURCEDATE":1533686400000,"VAL_METHOD":"IMAGERY","VAL_DATE":1391990400000,"WEBSITE":"http://www.srhca.org","STATE_ID":"NOT AVAILABLE","ALT_NAME":"NOT AVAILABLE","ST_FIPS":"06","OWNER":"NON-PROFIT","TTL_STAFF":-999,"BEDS":217,"TRAUMA":"NOT AVAILABLE","HELIPAD":"N","img":"https://logo.clearbit.com/http://www.srhca.org","santizer":10,"masks":10,"gloves":10},"0045995204":{"OBJECTID":81,"ID":"0045995204","NAME":"ST. JOSEPH'S BEHAVIORAL HEALTH CENTER","ADDRESS":"2510 NORTH CALIFORNIA STREET","CITY":"STOCKTON","STATE":"CA","ZIP":"95204","ZIP4":"NOT AVAILABLE","TELEPHONE":"NOT AVAILABLE","TYPE":"PSYCHIATRIC","STATUS":"OPEN","POPULATION":35,"COUNTY":"SAN JOAQUIN","COUNTYFIPS":"06077","COUNTRY":"USA","LATITUDE":37.9765963,"LONGITUDE":-121.291070926,"NAICS_CODE":"622210","NAICS_DESC":"PSYCHIATRIC AND SUBSTANCE ABUSE HOSPITALS","SOURCE":"http://www.oshpd.ca.gov/HID/Facility-Listing.html","SOURCEDATE":1533686400000,"VAL_METHOD":"IMAGERY/OTHER","VAL_DATE":1391990400000,"WEBSITE":"http://www.stjosephscanhelp.org","STATE_ID":"NOT AVAILABLE","ALT_NAME":"NOT AVAILABLE","ST_FIPS":"06","OWNER":"NON-PROFIT","TTL_STAFF":-999,"BEDS":35,"TRAUMA":"NOT AVAILABLE","HELIPAD":"N","img":"https://logo.clearbit.com/http://www.stjosephscanhelp.org","santizer":10,"masks":10,"gloves":10},"0046095204":{"OBJECTID":82,"ID":"0046095204","NAME":"ST. JOSEPH'S MEDICAL CENTER OF STOCKTON","ADDRESS":"1800 NORTH CALIFORNIA STREET","CITY":"STOCKTON","STATE":"CA","ZIP":"95204","ZIP4":"NOT AVAILABLE","TELEPHONE":"NOT AVAILABLE","TYPE":"GENERAL ACUTE CARE","STATUS":"OPEN","POPULATION":364,"COUNTY":"SAN JOAQUIN","COUNTYFIPS":"06077","COUNTRY":"USA","LATITUDE":37.970467188,"LONGITUDE":-121.288182762,"NAICS_CODE":"622110","NAICS_DESC":"GENERAL MEDICAL AND SURGICAL HOSPITALS","SOURCE":"http://www.oshpd.ca.gov/HID/Facility-Listing.html","SOURCEDATE":1533686400000,"VAL_METHOD":"IMAGERY","VAL_DATE":1391990400000,"WEBSITE":"http://www.stjosephscares.org","STATE_ID":"NOT AVAILABLE","ALT_NAME":"NOT AVAILABLE","ST_FIPS":"06","OWNER":"NON-PROFIT","TTL_STAFF":-999,"BEDS":364,"TRAUMA":"NOT AVAILABLE","HELIPAD":"Y","img":"https://logo.clearbit.com/http://www.stjosephscares.org","santizer":10,"masks":10,"gloves":10},"0013291741":{"OBJECTID":83,"ID":"0013291741","NAME":"FOOTHILL PRESBYTERIAN HOSPITAL-JOHNSTON MEMORIAL","ADDRESS":"250 SOUTH GRAND AVENUE","CITY":"GLENDORA","STATE":"CA","ZIP":"91741","ZIP4":"NOT AVAILABLE","TELEPHONE":"NOT AVAILABLE","TYPE":"GENERAL ACUTE CARE","STATUS":"OPEN","POPULATION":105,"COUNTY":"LOS ANGELES","COUNTYFIPS":"06037","COUNTRY":"USA","LATITUDE":34.1326545760001,"LONGITUDE":-117.871259716,"NAICS_CODE":"622110","NAICS_DESC":"GENERAL MEDICAL AND SURGICAL HOSPITALS","SOURCE":"http://www.oshpd.ca.gov/HID/Facility-Listing.html","SOURCEDATE":1533686400000,"VAL_METHOD":"IMAGERY/OTHER","VAL_DATE":1391990400000,"WEBSITE":"http://www.cvhp.org/Our_Facilities/Foothill_Presbyterian.aspx","STATE_ID":"NOT AVAILABLE","ALT_NAME":"NOT AVAILABLE","ST_FIPS":"06","OWNER":"NON-PROFIT","TTL_STAFF":-999,"BEDS":105,"TRAUMA":"NOT AVAILABLE","HELIPAD":"Y","img":"https://logo.clearbit.com/http://www.cvhp.org/Our_Facilities/Foothill_Presbyterian.aspx","santizer":10,"masks":10,"gloves":10},"0014791204":{"OBJECTID":84,"ID":"0014791204","NAME":"GLENDALE MEMORIAL HOSPITAL AND HEALTH CENTER","ADDRESS":"1420 SOUTH CENTRAL AVENUE","CITY":"GLENDALE","STATE":"CA","ZIP":"91204","ZIP4":"NOT AVAILABLE","TELEPHONE":"NOT AVAILABLE","TYPE":"GENERAL ACUTE CARE","STATUS":"OPEN","POPULATION":334,"COUNTY":"LOS ANGELES","COUNTYFIPS":"06037","COUNTRY":"USA","LATITUDE":34.128165628,"LONGITUDE":-118.256643169,"NAICS_CODE":"622110","NAICS_DESC":"GENERAL MEDICAL AND SURGICAL HOSPITALS","SOURCE":"http://www.oshpd.ca.gov/HID/Facility-Listing.html","SOURCEDATE":1533686400000,"VAL_METHOD":"IMAGERY/OTHER","VAL_DATE":1391990400000,"WEBSITE":"http://www.glendalememorial.com","STATE_ID":"NOT AVAILABLE","ALT_NAME":"NOT AVAILABLE","ST_FIPS":"06","OWNER":"NON-PROFIT","TTL_STAFF":-999,"BEDS":334,"TRAUMA":"NOT AVAILABLE","HELIPAD":"N","img":"https://logo.clearbit.com/http://www.glendalememorial.com","santizer":10,"masks":10,"gloves":10},"0019090027":{"OBJECTID":85,"ID":"0019090027","NAME":"KAISER PERMANENTE LOS ANGELES MEDICAL CENTER","ADDRESS":"4867 SUNSET BOULEVARD","CITY":"LOS ANGELES","STATE":"CA","ZIP":"90027","ZIP4":"NOT AVAILABLE","TELEPHONE":"NOT AVAILABLE","TYPE":"GENERAL ACUTE CARE","STATUS":"OPEN","POPULATION":460,"COUNTY":"LOS ANGELES","COUNTYFIPS":"06037","COUNTRY":"USA","LATITUDE":34.0985736490001,"LONGITUDE":-118.294175331,"NAICS_CODE":"622110","NAICS_DESC":"GENERAL MEDICAL AND SURGICAL HOSPITALS","SOURCE":"http://www.oshpd.ca.gov/HID/Facility-Listing.html","SOURCEDATE":1533686400000,"VAL_METHOD":"IMAGERY/OTHER","VAL_DATE":1391990400000,"WEBSITE":"http://www.kaiserpermanente.org","STATE_ID":"NOT AVAILABLE","ALT_NAME":"NOT AVAILABLE","ST_FIPS":"06","OWNER":"NON-PROFIT","TTL_STAFF":-999,"BEDS":460,"TRAUMA":"NOT AVAILABLE","HELIPAD":"N","img":"https://logo.clearbit.com/http://www.kaiserpermanente.org","santizer":10,"masks":10,"gloves":10},"0019391402":{"OBJECTID":86,"ID":"0019391402","NAME":"KAISER PERMANENTE PANORAMA CITY","ADDRESS":"13652 CANTARA STREET","CITY":"PANORAMA CITY","STATE":"CA","ZIP":"91402","ZIP4":"NOT AVAILABLE","TELEPHONE":"NOT AVAILABLE","TYPE":"GENERAL ACUTE CARE","STATUS":"OPEN","POPULATION":218,"COUNTY":"LOS ANGELES","COUNTYFIPS":"06037","COUNTRY":"USA","LATITUDE":34.2185641940001,"LONGITUDE":-118.430219294,"NAICS_CODE":"622110","NAICS_DESC":"GENERAL MEDICAL AND SURGICAL HOSPITALS","SOURCE":"http://www.oshpd.ca.gov/HID/Facility-Listing.html","SOURCEDATE":1533686400000,"VAL_METHOD":"IMAGERY/OTHER","VAL_DATE":1391990400000,"WEBSITE":"http://www.kaiserpermanente.org","STATE_ID":"NOT AVAILABLE","ALT_NAME":"NOT AVAILABLE","ST_FIPS":"06","OWNER":"NON-PROFIT","TTL_STAFF":-999,"BEDS":218,"TRAUMA":"NOT AVAILABLE","HELIPAD":"N","img":"https://logo.clearbit.com/http://www.kaiserpermanente.org","santizer":10,"masks":10,"gloves":10},"0036090505":{"OBJECTID":87,"ID":"0036090505","NAME":"PROVIDENCE LITTLE CO OF MARY SUBACUTE CARE CENTER","ADDRESS":"3620 WEST LOMITA BOULEVARD","CITY":"TORRANCE","STATE":"CA","ZIP":"90505","ZIP4":"NOT AVAILABLE","TELEPHONE":"(866) 872-7751","TYPE":"GENERAL ACUTE CARE","STATUS":"CLOSED","POPULATION":200,"COUNTY":"LOS ANGELES","COUNTYFIPS":"06037","COUNTRY":"USA","LATITUDE":33.8140496890001,"LONGITUDE":-118.348147562,"NAICS_CODE":"622110","NAICS_DESC":"GENERAL MEDICAL AND SURGICAL HOSPITALS","SOURCE":"http://www.oshpd.ca.gov/HID/Products/Listings.html","SOURCEDATE":1344816000000,"VAL_METHOD":"IMAGERY/OTHER","VAL_DATE":1391990400000,"WEBSITE":"http://california.providence.org/","STATE_ID":"NOT AVAILABLE","ALT_NAME":"NOT AVAILABLE","ST_FIPS":"06","OWNER":"NON-PROFIT","TTL_STAFF":-999,"BEDS":200,"TRAUMA":"NOT AVAILABLE","HELIPAD":"N","img":"https://logo.clearbit.com/http://california.providence.org/","santizer":10,"masks":10,"gloves":10},"0036691356":{"OBJECTID":88,"ID":"0036691356","NAME":"PROVIDENCE TARZANA MEDICAL CENTER","ADDRESS":"18321 CLARK STREET","CITY":"TARZANA","STATE":"CA","ZIP":"91356","ZIP4":"NOT AVAILABLE","TELEPHONE":"NOT AVAILABLE","TYPE":"GENERAL ACUTE CARE","STATUS":"OPEN","POPULATION":249,"COUNTY":"LOS ANGELES","COUNTYFIPS":"06037","COUNTRY":"USA","LATITUDE":34.170393216,"LONGITUDE":-118.531904059,"NAICS_CODE":"622110","NAICS_DESC":"GENERAL MEDICAL AND SURGICAL HOSPITALS","SOURCE":"http://www.oshpd.ca.gov/HID/Facility-Listing.html","SOURCEDATE":1533686400000,"VAL_METHOD":"IMAGERY","VAL_DATE":1391990400000,"WEBSITE":"http://california.providence.org/","STATE_ID":"NOT AVAILABLE","ALT_NAME":"NOT AVAILABLE","ST_FIPS":"06","OWNER":"NON-PROFIT","TTL_STAFF":-999,"BEDS":249,"TRAUMA":"NOT AVAILABLE","HELIPAD":"N","img":"https://logo.clearbit.com/http://california.providence.org/","santizer":10,"masks":10,"gloves":10},"0042990020":{"OBJECTID":89,"ID":"0042990020","NAME":"SHRINERS HOSPITAL FOR  CHILDREN - L.A.","ADDRESS":"3160 GENEVA STREET","CITY":"LOS ANGELES","STATE":"CA","ZIP":"90020","ZIP4":"NOT AVAILABLE","TELEPHONE":"NOT AVAILABLE","TYPE":"GENERAL ACUTE CARE","STATUS":"OPEN","POPULATION":60,"COUNTY":"LOS ANGELES","COUNTYFIPS":"06037","COUNTRY":"USA","LATITUDE":34.067204777,"LONGITUDE":-118.286392079,"NAICS_CODE":"622110","NAICS_DESC":"GENERAL MEDICAL AND SURGICAL HOSPITALS","SOURCE":"http://www.oshpd.ca.gov/HID/Facility-Listing.html","SOURCEDATE":1533686400000,"VAL_METHOD":"IMAGERY","VAL_DATE":1391990400000,"WEBSITE":"http://www.shrinershospitalsforchildren.org/Hospitals/Locations/Losa ngeles.aspx","STATE_ID":"NOT AVAILABLE","ALT_NAME":"NOT AVAILABLE","ST_FIPS":"06","OWNER":"NON-PROFIT","TTL_STAFF":-999,"BEDS":60,"TRAUMA":"NOT AVAILABLE","HELIPAD":"N","img":"https://logo.clearbit.com/http://www.shrinershospitalsforchildren.org/Hospitals/Locations/Losa ngeles.aspx","santizer":10,"masks":10,"gloves":10},"0049590004":{"OBJECTID":90,"ID":"0049590004","NAME":"TEMPLE COMMUNITY HOSPITAL","ADDRESS":"235 NORTH HOOVER STREET","CITY":"LOS ANGELES","STATE":"CA","ZIP":"90004","ZIP4":"NOT AVAILABLE","TELEPHONE":"NOT AVAILABLE","TYPE":"GENERAL ACUTE CARE","STATUS":"CLOSED","POPULATION":730,"COUNTY":"LOS ANGELES","COUNTYFIPS":"06037","COUNTRY":"USA","LATITUDE":34.075653951,"LONGITUDE":-118.284034358,"NAICS_CODE":"622110","NAICS_DESC":"GENERAL MEDICAL AND SURGICAL HOSPITALS","SOURCE":"http://www.oshpd.ca.gov/HID/Products/Listings.html","SOURCEDATE":1344816000000,"VAL_METHOD":"IMAGERY/OTHER","VAL_DATE":1391990400000,"WEBSITE":"http://tuh.templehealth.org/content/default.htm","STATE_ID":"NOT AVAILABLE","ALT_NAME":"NOT AVAILABLE","ST_FIPS":"06","OWNER":"NON-PROFIT","TTL_STAFF":-999,"BEDS":730,"TRAUMA":"NOT AVAILABLE","HELIPAD":"N","img":"https://logo.clearbit.com/http://tuh.templehealth.org/content/default.htm","santizer":10,"masks":10,"gloves":10},"0050190716":{"OBJECTID":91,"ID":"0050190716","NAME":"GARDENS REGIONAL HOSPITAL AND MEDICAL CENTER","ADDRESS":"21530 SOUTH PIONEER BOULEVARD","CITY":"HAWAIIAN GARDENS","STATE":"CA","ZIP":"90716","ZIP4":"NOT AVAILABLE","TELEPHONE":"NOT AVAILABLE","TYPE":"GENERAL ACUTE CARE","STATUS":"OPEN","POPULATION":107,"COUNTY":"LOS ANGELES","COUNTYFIPS":"06037","COUNTRY":"USA","LATITUDE":33.833640007,"LONGITUDE":-118.079677951,"NAICS_CODE":"622110","NAICS_DESC":"GENERAL MEDICAL AND SURGICAL HOSPITALS","SOURCE":"http://www.oshpd.ca.gov/HID/Facility-Listing.html","SOURCEDATE":1533686400000,"VAL_METHOD":"IMAGERY/OTHER","VAL_DATE":1391990400000,"WEBSITE":"http://www.tcrmc.org/","STATE_ID":"NOT AVAILABLE","ALT_NAME":"TRI-CITY REGIONAL MEDICAL CENTER","ST_FIPS":"06","OWNER":"NON-PROFIT","TTL_STAFF":-999,"BEDS":107,"TRAUMA":"NOT AVAILABLE","HELIPAD":"N","img":"https://logo.clearbit.com/http://www.tcrmc.org/","santizer":10,"masks":10,"gloves":10},"0045295422":{"OBJECTID":92,"ID":"0045295422","NAME":"ST. HELENA HOSPITAL - CLEARLAKE","ADDRESS":"15630 18TH AVE - HWY 53","CITY":"CLEARLAKE","STATE":"CA","ZIP":"95422","ZIP4":"NOT AVAILABLE","TELEPHONE":"NOT AVAILABLE","TYPE":"GENERAL ACUTE CARE","STATUS":"OPEN","POPULATION":32,"COUNTY":"LAKE","COUNTYFIPS":"06033","COUNTRY":"USA","LATITUDE":38.935618855,"LONGITUDE":-122.620144532,"NAICS_CODE":"622110","NAICS_DESC":"GENERAL MEDICAL AND SURGICAL HOSPITALS","SOURCE":"http://www.oshpd.ca.gov/HID/Facility-Listing.html","SOURCEDATE":1533686400000,"VAL_METHOD":"IMAGERY/OTHER","VAL_DATE":1391990400000,"WEBSITE":"http://www.adventisthealth.org","STATE_ID":"NOT AVAILABLE","ALT_NAME":"NOT AVAILABLE","ST_FIPS":"06","OWNER":"NON-PROFIT","TTL_STAFF":-999,"BEDS":32,"TRAUMA":"NOT AVAILABLE","HELIPAD":"Y","img":"https://logo.clearbit.com/http://www.adventisthealth.org","santizer":10,"masks":10,"gloves":10},"0006193638":{"OBJECTID":93,"ID":"0006193638","NAME":"VALLEY CHILDREN'S HOSPITAL","ADDRESS":"9300 VALLEY CHILDREN'S PLACE","CITY":"MADERA","STATE":"CA","ZIP":"93638","ZIP4":"NOT AVAILABLE","TELEPHONE":"NOT AVAILABLE","TYPE":"CHILDREN","STATUS":"OPEN","POPULATION":356,"COUNTY":"MADERA","COUNTYFIPS":"06039","COUNTRY":"USA","LATITUDE":36.8840478340001,"LONGITUDE":-119.800242412,"NAICS_CODE":"622110","NAICS_DESC":"CHILDREN'S HOSPITALS, GENERAL","SOURCE":"http://www.oshpd.ca.gov/HID/Facility-Listing.html","SOURCEDATE":1533686400000,"VAL_METHOD":"IMAGERY/OTHER","VAL_DATE":1391990400000,"WEBSITE":"http://www.valleychildrens.org/Pages/Default.aspx","STATE_ID":"NOT AVAILABLE","ALT_NAME":"CHILDREN'S HOSPITAL CENTRAL CALIFORNIA","ST_FIPS":"06","OWNER":"NON-PROFIT","TTL_STAFF":-999,"BEDS":356,"TRAUMA":"NOT AVAILABLE","HELIPAD":"Y","img":"https://logo.clearbit.com/http://www.valleychildrens.org/Pages/Default.aspx","santizer":10,"masks":10,"gloves":10},"0011792270":{"OBJECTID":94,"ID":"0011792270","NAME":"EISENHOWER MEDICAL CENTER","ADDRESS":"39-000 BOB HOPE DRIVE","CITY":"RANCHO MIRAGE","STATE":"CA","ZIP":"92270","ZIP4":"NOT AVAILABLE","TELEPHONE":"NOT AVAILABLE","TYPE":"GENERAL ACUTE CARE","STATUS":"OPEN","POPULATION":489,"COUNTY":"RIVERSIDE","COUNTYFIPS":"06065","COUNTRY":"USA","LATITUDE":33.7633520680001,"LONGITUDE":-116.406241091,"NAICS_CODE":"622110","NAICS_DESC":"GENERAL MEDICAL AND SURGICAL HOSPITALS","SOURCE":"http://www.oshpd.ca.gov/HID/Facility-Listing.html","SOURCEDATE":1533686400000,"VAL_METHOD":"IMAGERY/OTHER","VAL_DATE":1391990400000,"WEBSITE":"http://www.emc.org","STATE_ID":"NOT AVAILABLE","ALT_NAME":"NOT AVAILABLE","ST_FIPS":"06","OWNER":"NON-PROFIT","TTL_STAFF":-999,"BEDS":489,"TRAUMA":"NOT AVAILABLE","HELIPAD":"Y","img":"https://logo.clearbit.com/http://www.emc.org","santizer":10,"masks":10,"gloves":10},"0015295124":{"OBJECTID":95,"ID":"0015295124","NAME":"GOOD SAMARITAN HOSPITAL-SAN JOSE","ADDRESS":"2425 SAMARITAN DRIVE","CITY":"SAN JOSE","STATE":"CA","ZIP":"95124","ZIP4":"NOT AVAILABLE","TELEPHONE":"NOT AVAILABLE","TYPE":"GENERAL ACUTE CARE","STATUS":"OPEN","POPULATION":404,"COUNTY":"SANTA CLARA","COUNTYFIPS":"06085","COUNTRY":"USA","LATITUDE":37.252078736,"LONGITUDE":-121.946576875,"NAICS_CODE":"622110","NAICS_DESC":"GENERAL MEDICAL AND SURGICAL HOSPITALS","SOURCE":"http://www.oshpd.ca.gov/HID/Facility-Listing.html","SOURCEDATE":1533686400000,"VAL_METHOD":"IMAGERY/OTHER","VAL_DATE":1391990400000,"WEBSITE":"http://www.goodsamsanjose.com","STATE_ID":"NOT AVAILABLE","ALT_NAME":"NOT AVAILABLE","ST_FIPS":"06","OWNER":"NON-PROFIT","TTL_STAFF":-999,"BEDS":404,"TRAUMA":"NOT AVAILABLE","HELIPAD":"Y","img":"https://logo.clearbit.com/http://www.goodsamsanjose.com","santizer":10,"masks":10,"gloves":10},"0020495051":{"OBJECTID":96,"ID":"0020495051","NAME":"KAISER FND HOSP - SANTA CLARA","ADDRESS":"700 LAWRENCE EXPRESSWAY","CITY":"SANTA CLARA","STATE":"CA","ZIP":"95051","ZIP4":"NOT AVAILABLE","TELEPHONE":"NOT AVAILABLE","TYPE":"GENERAL ACUTE CARE","STATUS":"OPEN","POPULATION":327,"COUNTY":"SANTA CLARA","COUNTYFIPS":"06085","COUNTRY":"USA","LATITUDE":37.3354013750001,"LONGITUDE":-121.998873047,"NAICS_CODE":"622110","NAICS_DESC":"GENERAL MEDICAL AND SURGICAL HOSPITALS","SOURCE":"http://www.oshpd.ca.gov/HID/Facility-Listing.html","SOURCEDATE":1533686400000,"VAL_METHOD":"IMAGERY","VAL_DATE":1391990400000,"WEBSITE":"http://www.kaiserpermanente.org","STATE_ID":"NOT AVAILABLE","ALT_NAME":"NOT AVAILABLE","ST_FIPS":"06","OWNER":"NON-PROFIT","TTL_STAFF":-999,"BEDS":327,"TRAUMA":"NOT AVAILABLE","HELIPAD":"Y","img":"https://logo.clearbit.com/http://www.kaiserpermanente.org","santizer":10,"masks":10,"gloves":10},"0027094304":{"OBJECTID":97,"ID":"0027094304","NAME":"LUCILE SALTER PACKARD CHILDREN'S HOSP. AT STANFORD","ADDRESS":"725 WELCH ROAD","CITY":"PALO ALTO","STATE":"CA","ZIP":"94304","ZIP4":"NOT AVAILABLE","TELEPHONE":"NOT AVAILABLE","TYPE":"GENERAL ACUTE CARE","STATUS":"OPEN","POPULATION":302,"COUNTY":"SANTA CLARA","COUNTYFIPS":"06085","COUNTRY":"USA","LATITUDE":37.436004575,"LONGITUDE":-122.175390036,"NAICS_CODE":"622110","NAICS_DESC":"GENERAL MEDICAL AND SURGICAL HOSPITALS","SOURCE":"http://www.oshpd.ca.gov/HID/Facility-Listing.html","SOURCEDATE":1533686400000,"VAL_METHOD":"IMAGERY","VAL_DATE":1394582400000,"WEBSITE":"http://www.lpch.org","STATE_ID":"NOT AVAILABLE","ALT_NAME":"NOT AVAILABLE","ST_FIPS":"06","OWNER":"NON-PROFIT","TTL_STAFF":-999,"BEDS":302,"TRAUMA":"NOT AVAILABLE","HELIPAD":"Y","img":"https://logo.clearbit.com/http://www.lpch.org","santizer":10,"masks":10,"gloves":10},"0019494063":{"OBJECTID":98,"ID":"0019494063","NAME":"KAISER FND HOSP - REDWOOD CITY","ADDRESS":"1100 VETERANS BOULEVARD","CITY":"REDWOOD CITY","STATE":"CA","ZIP":"94063","ZIP4":"NOT AVAILABLE","TELEPHONE":"NOT AVAILABLE","TYPE":"GENERAL ACUTE CARE","STATUS":"OPEN","POPULATION":149,"COUNTY":"SAN MATEO","COUNTYFIPS":"06081","COUNTRY":"USA","LATITUDE":37.488847836,"LONGITUDE":-122.223390131,"NAICS_CODE":"622110","NAICS_DESC":"GENERAL MEDICAL AND SURGICAL HOSPITALS","SOURCE":"http://www.oshpd.ca.gov/HID/Facility-Listing.html","SOURCEDATE":1533686400000,"VAL_METHOD":"IMAGERY/OTHER","VAL_DATE":1391990400000,"WEBSITE":"http://www.kaiserpermanente.org","STATE_ID":"NOT AVAILABLE","ALT_NAME":"NOT AVAILABLE","ST_FIPS":"06","OWNER":"NON-PROFIT","TTL_STAFF":-999,"BEDS":149,"TRAUMA":"NOT AVAILABLE","HELIPAD":"N","img":"https://logo.clearbit.com/http://www.kaiserpermanente.org","santizer":10,"masks":10,"gloves":10},"0018094520":{"OBJECTID":99,"ID":"0018094520","NAME":"JOHN MUIR MEDICAL CENTER-CONCORD CAMPUS","ADDRESS":"2540 EAST STREET","CITY":"CONCORD","STATE":"CA","ZIP":"94520","ZIP4":"NOT AVAILABLE","TELEPHONE":"NOT AVAILABLE","TYPE":"GENERAL ACUTE CARE","STATUS":"OPEN","POPULATION":245,"COUNTY":"CONTRA COSTA","COUNTYFIPS":"06013","COUNTRY":"USA","LATITUDE":37.9830895790001,"LONGITUDE":-122.033496796,"NAICS_CODE":"622110","NAICS_DESC":"GENERAL MEDICAL AND SURGICAL HOSPITALS","SOURCE":"http://www.oshpd.ca.gov/HID/Facility-Listing.html","SOURCEDATE":1533686400000,"VAL_METHOD":"IMAGERY/OTHER","VAL_DATE":1391990400000,"WEBSITE":"http://www.johnmuirhealth.com","STATE_ID":"NOT AVAILABLE","ALT_NAME":"NOT AVAILABLE","ST_FIPS":"06","OWNER":"NON-PROFIT","TTL_STAFF":-999,"BEDS":245,"TRAUMA":"NOT AVAILABLE","HELIPAD":"N","img":"https://logo.clearbit.com/http://www.johnmuirhealth.com","santizer":10,"masks":10,"gloves":10},"0047794509":{"OBJECTID":100,"ID":"0047794509","NAME":"SUTTER DELTA MEDICAL CENTER","ADDRESS":"3901 LONE TREE WAY","CITY":"ANTIOCH","STATE":"CA","ZIP":"94509","ZIP4":"NOT AVAILABLE","TELEPHONE":"NOT AVAILABLE","TYPE":"GENERAL ACUTE CARE","STATUS":"OPEN","POPULATION":145,"COUNTY":"CONTRA COSTA","COUNTYFIPS":"06013","COUNTRY":"USA","LATITUDE":37.9822344500001,"LONGITUDE":-121.802978505,"NAICS_CODE":"622110","NAICS_DESC":"GENERAL MEDICAL AND SURGICAL HOSPITALS","SOURCE":"http://www.oshpd.ca.gov/HID/Facility-Listing.html","SOURCEDATE":1533686400000,"VAL_METHOD":"IMAGERY","VAL_DATE":1391990400000,"WEBSITE":"http://www.sutterdelta.org","STATE_ID":"NOT AVAILABLE","ALT_NAME":"NOT AVAILABLE","ST_FIPS":"06","OWNER":"NON-PROFIT","TTL_STAFF":-999,"BEDS":145,"TRAUMA":"NOT AVAILABLE","HELIPAD":"N","img":"https://logo.clearbit.com/http://www.sutterdelta.org","santizer":10,"masks":10,"gloves":10},"0019995825":{"OBJECTID":101,"ID":"0019995825","NAME":"KAISER FND HOSP - SACRAMENTO","ADDRESS":"2025 MORSE AVENUE","CITY":"SACRAMENTO","STATE":"CA","ZIP":"95825","ZIP4":"NOT AVAILABLE","TELEPHONE":"NOT AVAILABLE","TYPE":"GENERAL ACUTE CARE","STATUS":"OPEN","POPULATION":287,"COUNTY":"SACRAMENTO","COUNTYFIPS":"06067","COUNTRY":"USA","LATITUDE":38.601797751,"LONGITUDE":-121.393144026,"NAICS_CODE":"622110","NAICS_DESC":"GENERAL MEDICAL AND SURGICAL HOSPITALS","SOURCE":"http://www.oshpd.ca.gov/HID/Facility-Listing.html","SOURCEDATE":1533686400000,"VAL_METHOD":"IMAGERY","VAL_DATE":1391990400000,"WEBSITE":"http://www.kaiserpermanente.org","STATE_ID":"NOT AVAILABLE","ALT_NAME":"NOT AVAILABLE","ST_FIPS":"06","OWNER":"NON-PROFIT","TTL_STAFF":-999,"BEDS":287,"TRAUMA":"NOT AVAILABLE","HELIPAD":"N","img":"https://logo.clearbit.com/http://www.kaiserpermanente.org","santizer":10,"masks":10,"gloves":10},"0043195945":{"OBJECTID":102,"ID":"0043195945","NAME":"SIERRA NEVADA MEMORIAL HOSPITAL","ADDRESS":"155 GLASSON WAY","CITY":"GRASS VALLEY","STATE":"CA","ZIP":"95945","ZIP4":"NOT AVAILABLE","TELEPHONE":"NOT AVAILABLE","TYPE":"GENERAL ACUTE CARE","STATUS":"OPEN","POPULATION":104,"COUNTY":"NEVADA","COUNTYFIPS":"06057","COUNTRY":"USA","LATITUDE":39.228016294,"LONGITUDE":-121.047499779,"NAICS_CODE":"622110","NAICS_DESC":"GENERAL MEDICAL AND SURGICAL HOSPITALS","SOURCE":"http://www.oshpd.ca.gov/HID/Facility-Listing.html","SOURCEDATE":1533686400000,"VAL_METHOD":"IMAGERY","VAL_DATE":1391990400000,"WEBSITE":"http://www.snmh.org","STATE_ID":"NOT AVAILABLE","ALT_NAME":"NOT AVAILABLE","ST_FIPS":"06","OWNER":"NON-PROFIT","TTL_STAFF":-999,"BEDS":104,"TRAUMA":"NOT AVAILABLE","HELIPAD":"Y","img":"https://logo.clearbit.com/http://www.snmh.org","santizer":10,"masks":10,"gloves":10},"0018392807":{"OBJECTID":103,"ID":"0018392807","NAME":"KAISER FND HOSP - ANAHEIM","ADDRESS":"441 LAKEVIEW AVENUE","CITY":"ANAHEIM","STATE":"CA","ZIP":"92807","ZIP4":"NOT AVAILABLE","TELEPHONE":"NOT AVAILABLE","TYPE":"GENERAL ACUTE CARE","STATUS":"CLOSED","POPULATION":326,"COUNTY":"ORANGE","COUNTYFIPS":"06059","COUNTRY":"USA","LATITUDE":33.853926389,"LONGITUDE":-117.817384332,"NAICS_CODE":"622110","NAICS_DESC":"GENERAL MEDICAL AND SURGICAL HOSPITALS","SOURCE":"http://www.oshpd.ca.gov/HID/Products/Listings.html","SOURCEDATE":1344816000000,"VAL_METHOD":"IMAGERY","VAL_DATE":1391990400000,"WEBSITE":"http://www.kp.org","STATE_ID":"NOT AVAILABLE","ALT_NAME":"NOT AVAILABLE","ST_FIPS":"06","OWNER":"NON-PROFIT","TTL_STAFF":-999,"BEDS":326,"TRAUMA":"NOT AVAILABLE","HELIPAD":"N","img":"https://logo.clearbit.com/http://www.kp.org","santizer":10,"masks":10,"gloves":10},"0024690623":{"OBJECTID":104,"ID":"0024690623","NAME":"LA PALMA INTERCOMMUNITY HOSPITAL","ADDRESS":"7901 WALKER STREET","CITY":"LA PALMA","STATE":"CA","ZIP":"90623","ZIP4":"NOT AVAILABLE","TELEPHONE":"NOT AVAILABLE","TYPE":"GENERAL ACUTE CARE","STATUS":"OPEN","POPULATION":141,"COUNTY":"ORANGE","COUNTYFIPS":"06059","COUNTRY":"USA","LATITUDE":33.8475141810001,"LONGITUDE":-118.038302332,"NAICS_CODE":"622110","NAICS_DESC":"GENERAL MEDICAL AND SURGICAL HOSPITALS","SOURCE":"http://www.oshpd.ca.gov/HID/Facility-Listing.html","SOURCEDATE":1533686400000,"VAL_METHOD":"IMAGERY","VAL_DATE":1391990400000,"WEBSITE":"http://www.lapalmaintercommunityhospital.com","STATE_ID":"NOT AVAILABLE","ALT_NAME":"NOT AVAILABLE","ST_FIPS":"06","OWNER":"NON-PROFIT","TTL_STAFF":-999,"BEDS":141,"TRAUMA":"NOT AVAILABLE","HELIPAD":"Y","img":"https://logo.clearbit.com/http://www.lapalmaintercommunityhospital.com","santizer":10,"masks":10,"gloves":10},"0038492673":{"OBJECTID":105,"ID":"0038492673","NAME":"SADDLEBACK MEMORIAL MEDICAL CENTER - SAN CLEMENTE","ADDRESS":"654 CAMINO DE LOS MARES","CITY":"SAN CLEMENTE","STATE":"CA","ZIP":"92673","ZIP4":"NOT AVAILABLE","TELEPHONE":"NOT AVAILABLE","TYPE":"GENERAL ACUTE CARE","STATUS":"CLOSED","POPULATION":73,"COUNTY":"ORANGE","COUNTYFIPS":"06059","COUNTRY":"USA","LATITUDE":33.457065243,"LONGITUDE":-117.650183918,"NAICS_CODE":"622110","NAICS_DESC":"GENERAL MEDICAL AND SURGICAL HOSPITALS","SOURCE":"http://www.oshpd.ca.gov/HID/Facility-Listing.html","SOURCEDATE":1454544000000,"VAL_METHOD":"IMAGERY","VAL_DATE":1391990400000,"WEBSITE":"http://www.memorialcare.org","STATE_ID":"NOT AVAILABLE","ALT_NAME":"NOT AVAILABLE","ST_FIPS":"06","OWNER":"NON-PROFIT","TTL_STAFF":-999,"BEDS":73,"TRAUMA":"NOT AVAILABLE","HELIPAD":"N","img":"https://logo.clearbit.com/http://www.memorialcare.org","santizer":10,"masks":10,"gloves":10},"0013795991":{"OBJECTID":106,"ID":"0013795991","NAME":"FREMONT MEDICAL CENTER","ADDRESS":"970 PLUMAS STREET","CITY":"YUBA CITY","STATE":"CA","ZIP":"95991","ZIP4":"NOT AVAILABLE","TELEPHONE":"NOT AVAILABLE","TYPE":"GENERAL ACUTE CARE","STATUS":"OPEN","POPULATION":46,"COUNTY":"SUTTER","COUNTYFIPS":"06101","COUNTRY":"USA","LATITUDE":39.143106319,"LONGITUDE":-121.618012022,"NAICS_CODE":"622110","NAICS_DESC":"GENERAL MEDICAL AND SURGICAL HOSPITALS","SOURCE":"http://www.oshpd.ca.gov/HID/Facility-Listing.html","SOURCEDATE":1533686400000,"VAL_METHOD":"IMAGERY/OTHER","VAL_DATE":1391990400000,"WEBSITE":"http://www.frhg.org/","STATE_ID":"NOT AVAILABLE","ALT_NAME":"NOT AVAILABLE","ST_FIPS":"06","OWNER":"NON-PROFIT","TTL_STAFF":-999,"BEDS":46,"TRAUMA":"NOT AVAILABLE","HELIPAD":"N","img":"https://logo.clearbit.com/http://www.frhg.org/","santizer":10,"masks":10,"gloves":10},"0017030501":{"OBJECTID":107,"ID":"0017030501","NAME":"NEW HORIZONS LANIER PARK HOSPITAL","ADDRESS":"675 WHITE SULPHUR ROAD","CITY":"GAINESVILLE","STATE":"GA","ZIP":"30501","ZIP4":"NOT AVAILABLE","TELEPHONE":"(770) 535-3553","TYPE":"GENERAL ACUTE CARE","STATUS":"CLOSED","POPULATION":-999,"COUNTY":"HALL","COUNTYFIPS":"13139","COUNTRY":"USA","LATITUDE":34.320803842,"LONGITUDE":-83.795002946,"NAICS_CODE":"622110","NAICS_DESC":"GENERAL MEDICAL AND SURGICAL HOSPITALS","SOURCE":"http://167.193.144.247/","SOURCEDATE":1353715200000,"VAL_METHOD":"IMAGERY","VAL_DATE":1391990400000,"WEBSITE":"http://www.nghs.com/long-term-care","STATE_ID":"169","ALT_NAME":"NOT AVAILABLE","ST_FIPS":"13","OWNER":"NON-PROFIT","TTL_STAFF":-999,"BEDS":-999,"TRAUMA":"NOT AVAILABLE","HELIPAD":"Y","img":"https://logo.clearbit.com/http://www.nghs.com/long-term-care","santizer":10,"masks":10,"gloves":10},"0010230143":{"OBJECTID":108,"ID":"0010230143","NAME":"PIEDMONT MOUNTAINSIDE HOSPITAL","ADDRESS":"1266 EAST CHURCH STREET","CITY":"JASPER","STATE":"GA","ZIP":"30143","ZIP4":"NOT AVAILABLE","TELEPHONE":"NOT AVAILABLE","TYPE":"GENERAL ACUTE CARE","STATUS":"OPEN","POPULATION":48,"COUNTY":"PICKENS","COUNTYFIPS":"13227","COUNTRY":"USA","LATITUDE":34.4582486800001,"LONGITUDE":-84.412912891,"NAICS_CODE":"622110","NAICS_DESC":"GENERAL MEDICAL AND SURGICAL HOSPITALS","SOURCE":"http://www.gamap2care.info/","SOURCEDATE":1533772800000,"VAL_METHOD":"IMAGERY","VAL_DATE":1391990400000,"WEBSITE":"http://www.piedmontmountainsidehospital.org","STATE_ID":"100","ALT_NAME":"NOT AVAILABLE","ST_FIPS":"13","OWNER":"NON-PROFIT","TTL_STAFF":-999,"BEDS":48,"TRAUMA":"NOT AVAILABLE","HELIPAD":"N","img":"https://logo.clearbit.com/http://www.piedmontmountainsidehospital.org","santizer":10,"masks":10,"gloves":10},"0015530606":{"OBJECTID":109,"ID":"0015530606","NAME":"ST MARYS HEALTH CARE SYSTEM","ADDRESS":"1230 BAXTER STREET","CITY":"ATHENS","STATE":"GA","ZIP":"30606","ZIP4":"NOT AVAILABLE","TELEPHONE":"NOT AVAILABLE","TYPE":"GENERAL ACUTE CARE","STATUS":"OPEN","POPULATION":165,"COUNTY":"CLARKE","COUNTYFIPS":"13059","COUNTRY":"USA","LATITUDE":33.9472213170001,"LONGITUDE":-83.4052524589999,"NAICS_CODE":"622110","NAICS_DESC":"GENERAL MEDICAL AND SURGICAL HOSPITALS","SOURCE":"http://www.gamap2care.info/","SOURCEDATE":1533772800000,"VAL_METHOD":"IMAGERY","VAL_DATE":1391990400000,"WEBSITE":"http://www.stmarysathens.com","STATE_ID":"154","ALT_NAME":"NOT AVAILABLE","ST_FIPS":"13","OWNER":"NON-PROFIT","TTL_STAFF":-999,"BEDS":165,"TRAUMA":"NOT AVAILABLE","HELIPAD":"Y","img":"https://logo.clearbit.com/http://www.stmarysathens.com","santizer":10,"masks":10,"gloves":10},"0014130080":{"OBJECTID":110,"ID":"0014130080","NAME":"RIDGEVIEW INSTITUTE","ADDRESS":"3995 SOUTH COBB DRIVE SE","CITY":"SMYRNA","STATE":"GA","ZIP":"30080","ZIP4":"NOT AVAILABLE","TELEPHONE":"NOT AVAILABLE","TYPE":"PSYCHIATRIC","STATUS":"OPEN","POPULATION":92,"COUNTY":"COBB","COUNTYFIPS":"13067","COUNTRY":"USA","LATITUDE":33.8564432910001,"LONGITUDE":-84.51105483,"NAICS_CODE":"622210","NAICS_DESC":"PSYCHIATRIC AND SUBSTANCE ABUSE HOSPITALS","SOURCE":"http://www.gamap2care.info/","SOURCEDATE":1533772800000,"VAL_METHOD":"IMAGERY","VAL_DATE":1391990400000,"WEBSITE":"http://www.ridgeviewinstitute.com","STATE_ID":"140","ALT_NAME":"NOT AVAILABLE","ST_FIPS":"13","OWNER":"NON-PROFIT","TTL_STAFF":-999,"BEDS":92,"TRAUMA":"NOT AVAILABLE","HELIPAD":"N","img":"https://logo.clearbit.com/http://www.ridgeviewinstitute.com","santizer":10,"masks":10,"gloves":10},"0062972949":{"OBJECTID":111,"ID":"0062972949","NAME":"MERCY HOSPITAL OZARK","ADDRESS":"801 WEST RIVER STREET","CITY":"OZARK","STATE":"AR","ZIP":"72949","ZIP4":"NOT AVAILABLE","TELEPHONE":"(479) 667-4138","TYPE":"GENERAL ACUTE CARE","STATUS":"OPEN","POPULATION":-999,"COUNTY":"FRANKLIN","COUNTYFIPS":"05047","COUNTRY":"USA","LATITUDE":35.4858200100001,"LONGITUDE":-93.833443749,"NAICS_CODE":"622110","NAICS_DESC":"GENERAL MEDICAL AND SURGICAL HOSPITALS","SOURCE":"http://www.healthy.arkansas.gov/programsServices/hsLicensingRegulation/HealthFacilityServices/Pages/ProviderLists.aspx","SOURCEDATE":1533686400000,"VAL_METHOD":"IMAGERY/OTHER","VAL_DATE":1417478400000,"WEBSITE":"NOT AVAILABLE","STATE_ID":"NOT AVAILABLE","ALT_NAME":"NOT AVAILABLE","ST_FIPS":"05","OWNER":"NOT AVAILABLE","TTL_STAFF":-999,"BEDS":-999,"TRAUMA":"LEVEL IV","HELIPAD":"Y","img":"https://logo.clearbit.com/NOT AVAILABLE","santizer":10,"masks":10,"gloves":10},"0000502891":{"OBJECTID":112,"ID":"0000502891","NAME":"WESTERLY HOSPITAL","ADDRESS":"25 WELLS ST","CITY":"WESTERLY","STATE":"RI","ZIP":"02891","ZIP4":"NOT AVAILABLE","TELEPHONE":"(401) 596-6000","TYPE":"GENERAL ACUTE CARE","STATUS":"OPEN","POPULATION":125,"COUNTY":"WASHINGTON","COUNTYFIPS":"44009","COUNTRY":"USA","LATITUDE":41.3621890750001,"LONGITUDE":-71.825303241,"NAICS_CODE":"622110","NAICS_DESC":"GENERAL MEDICAL AND SURGICAL HOSPITALS","SOURCE":"http://www.health.ri.gov/licenses/detail.php?id=207","SOURCEDATE":1533859200000,"VAL_METHOD":"IMAGERY","VAL_DATE":1394582400000,"WEBSITE":"http://www.westerlyhospital.org/","STATE_ID":"6","ALT_NAME":"NOT AVAILABLE","ST_FIPS":"44","OWNER":"NON-PROFIT","TTL_STAFF":-999,"BEDS":125,"TRAUMA":"NOT AVAILABLE","HELIPAD":"N","img":"https://logo.clearbit.com/http://www.westerlyhospital.org/","santizer":10,"masks":10,"gloves":10},"0001553715":{"OBJECTID":113,"ID":"0001553715","NAME":"ST MARYS HOSPITAL","ADDRESS":"700 SOUTH PARK ST","CITY":"MADISON","STATE":"WI","ZIP":"53715","ZIP4":"NOT AVAILABLE","TELEPHONE":"(608) 251-6100","TYPE":"GENERAL ACUTE CARE","STATUS":"OPEN","POPULATION":440,"COUNTY":"DANE","COUNTYFIPS":"55025","COUNTRY":"USA","LATITUDE":43.0593384640001,"LONGITUDE":-89.401429215,"NAICS_CODE":"622110","NAICS_DESC":"GENERAL MEDICAL AND SURGICAL HOSPITALS","SOURCE":"https://www.dhs.wisconsin.gov/guide/hospital.htm","SOURCEDATE":1534118400000,"VAL_METHOD":"IMAGERY","VAL_DATE":1391990400000,"WEBSITE":"http://www.stmarysmadison.com","STATE_ID":"71","ALT_NAME":"NOT AVAILABLE","ST_FIPS":"55","OWNER":"NON-PROFIT","TTL_STAFF":-999,"BEDS":440,"TRAUMA":"NOT AVAILABLE","HELIPAD":"Y","img":"https://logo.clearbit.com/http://www.stmarysmadison.com","santizer":10,"masks":10,"gloves":10},"0002154235":{"OBJECTID":114,"ID":"0002154235","NAME":"MINISTRY DOOR COUNTY MEDICAL CENTER","ADDRESS":"323 SOUTH 18TH AVENUE","CITY":"STURGEON BAY","STATE":"WI","ZIP":"54235","ZIP4":"NOT AVAILABLE","TELEPHONE":"(920) 743-5566","TYPE":"GENERAL ACUTE CARE","STATUS":"OPEN","POPULATION":25,"COUNTY":"DOOR","COUNTYFIPS":"55029","COUNTRY":"USA","LATITUDE":44.832702698,"LONGITUDE":-87.3533355339999,"NAICS_CODE":"622110","NAICS_DESC":"GENERAL MEDICAL AND SURGICAL HOSPITALS","SOURCE":"https://www.dhs.wisconsin.gov/guide/hospital.htm","SOURCEDATE":1534118400000,"VAL_METHOD":"IMAGERY","VAL_DATE":1394582400000,"WEBSITE":"http://www.ministryhealth.org","STATE_ID":"1064","ALT_NAME":"NOT AVAILABLE","ST_FIPS":"55","OWNER":"NON-PROFIT","TTL_STAFF":-999,"BEDS":25,"TRAUMA":"LEVEL IV","HELIPAD":"Y","img":"https://logo.clearbit.com/http://www.ministryhealth.org","santizer":10,"masks":10,"gloves":10},"0002254303":{"OBJECTID":115,"ID":"0002254303","NAME":"ST JOSEPH HOSPITAL DBA LIBERTAS","ADDRESS":"1701 DOUSMAN ST","CITY":"GREEN BAY","STATE":"WI","ZIP":"54303","ZIP4":"NOT AVAILABLE","TELEPHONE":"(920) 498-8600","TYPE":"GENERAL ACUTE CARE","STATUS":"OPEN","POPULATION":24,"COUNTY":"BROWN","COUNTYFIPS":"55009","COUNTRY":"USA","LATITUDE":44.533820248,"LONGITUDE":-88.063583713,"NAICS_CODE":"622110","NAICS_DESC":"GENERAL MEDICAL AND SURGICAL HOSPITALS","SOURCE":"https://www.dhs.wisconsin.gov/guide/hospital.htm","SOURCEDATE":1534118400000,"VAL_METHOD":"IMAGERY","VAL_DATE":1394668800000,"WEBSITE":"www.libertascenter.org/","STATE_ID":"259","ALT_NAME":"NOT AVAILABLE","ST_FIPS":"55","OWNER":"NON-PROFIT","TTL_STAFF":-999,"BEDS":24,"TRAUMA":"NOT AVAILABLE","HELIPAD":"N","img":"https://logo.clearbit.com/www.libertascenter.org/","santizer":10,"masks":10,"gloves":10},"0063072758":{"OBJECTID":116,"ID":"0063072758","NAME":"MERCY HOSPITAL ROGERS","ADDRESS":"2710 RIFE MEDICAL LANE","CITY":"ROGERS","STATE":"AR","ZIP":"72758","ZIP4":"NOT AVAILABLE","TELEPHONE":"(479) 338-8000","TYPE":"GENERAL ACUTE CARE","STATUS":"OPEN","POPULATION":-999,"COUNTY":"BENTON","COUNTYFIPS":"05007","COUNTRY":"USA","LATITUDE":36.3089928530001,"LONGITUDE":-94.18297802,"NAICS_CODE":"622110","NAICS_DESC":"GENERAL MEDICAL AND SURGICAL HOSPITALS","SOURCE":"http://www.healthy.arkansas.gov/programsServices/hsLicensingRegulation/HealthFacilityServices/Pages/ProviderLists.aspx","SOURCEDATE":1533686400000,"VAL_METHOD":"IMAGERY/OTHER","VAL_DATE":1417478400000,"WEBSITE":"NOT AVAILABLE","STATE_ID":"NOT AVAILABLE","ALT_NAME":"NOT AVAILABLE","ST_FIPS":"05","OWNER":"NOT AVAILABLE","TTL_STAFF":-999,"BEDS":-999,"TRAUMA":"LEVEL III","HELIPAD":"Y","img":"https://logo.clearbit.com/NOT AVAILABLE","santizer":10,"masks":10,"gloves":10},"0002753925":{"OBJECTID":117,"ID":"0002753925","NAME":"COLUMBUS COM HSPTL","ADDRESS":"1515 PARK AVE","CITY":"COLUMBUS","STATE":"WI","ZIP":"53925","ZIP4":"NOT AVAILABLE","TELEPHONE":"(920) 623-2200","TYPE":"GENERAL ACUTE CARE","STATUS":"OPEN","POPULATION":25,"COUNTY":"COLUMBIA","COUNTYFIPS":"55021","COUNTRY":"USA","LATITUDE":43.3226073540001,"LONGITUDE":-89.035370684,"NAICS_CODE":"622110","NAICS_DESC":"GENERAL MEDICAL AND SURGICAL HOSPITALS","SOURCE":"https://www.dhs.wisconsin.gov/guide/hospital.htm","SOURCEDATE":1534118400000,"VAL_METHOD":"IMAGERY","VAL_DATE":1394582400000,"WEBSITE":"http://www.cch-inc.com","STATE_ID":"1042","ALT_NAME":"NOT AVAILABLE","ST_FIPS":"55","OWNER":"NON-PROFIT","TTL_STAFF":-999,"BEDS":25,"TRAUMA":"LEVEL IV","HELIPAD":"Y","img":"https://logo.clearbit.com/http://www.cch-inc.com","santizer":10,"masks":10,"gloves":10},"0003053821":{"OBJECTID":118,"ID":"0003053821","NAME":"PRAIRIE DU CHIEN MEMORIAL HOSPITAL","ADDRESS":"705 E TAYLOR ST","CITY":"PRAIRIE DU CHIEN","STATE":"WI","ZIP":"53821","ZIP4":"NOT AVAILABLE","TELEPHONE":"(608) 357-2000","TYPE":"GENERAL ACUTE CARE","STATUS":"CLOSED","POPULATION":25,"COUNTY":"CRAWFORD","COUNTYFIPS":"55023","COUNTRY":"USA","LATITUDE":43.044603705,"LONGITUDE":-91.137687506,"NAICS_CODE":"622110","NAICS_DESC":"GENERAL MEDICAL AND SURGICAL HOSPITALS","SOURCE":"http://www.dhs.wisconsin.gov/bqaconsumer/healthcare/HospitalCty.pdf","SOURCEDATE":1373414400000,"VAL_METHOD":"IMAGERY/OTHER","VAL_DATE":1391990400000,"WEBSITE":"http://www.pdcmemorialhospital.org","STATE_ID":"1033","ALT_NAME":"NOT AVAILABLE","ST_FIPS":"55","OWNER":"NON-PROFIT","TTL_STAFF":-999,"BEDS":25,"TRAUMA":"NOT AVAILABLE","HELIPAD":"N","img":"https://logo.clearbit.com/http://www.pdcmemorialhospital.org","santizer":10,"masks":10,"gloves":10},"0004354923":{"OBJECTID":119,"ID":"0004354923","NAME":"BERLIN MEMORIAL HOSPITAL","ADDRESS":"225 MEMORIAL DRIVE","CITY":"BERLIN","STATE":"WI","ZIP":"54923","ZIP4":"NOT AVAILABLE","TELEPHONE":"(920) 361-1313","TYPE":"GENERAL ACUTE CARE","STATUS":"OPEN","POPULATION":25,"COUNTY":"GREEN LAKE","COUNTYFIPS":"55047","COUNTRY":"USA","LATITUDE":43.9784771540001,"LONGITUDE":-88.94122636,"NAICS_CODE":"622110","NAICS_DESC":"GENERAL MEDICAL AND SURGICAL HOSPITALS","SOURCE":"https://www.dhs.wisconsin.gov/guide/hospital.htm","SOURCEDATE":1534118400000,"VAL_METHOD":"IMAGERY","VAL_DATE":1391990400000,"WEBSITE":"http://www.chnwi.org","STATE_ID":"1060","ALT_NAME":"NOT AVAILABLE","ST_FIPS":"55","OWNER":"NON-PROFIT","TTL_STAFF":-999,"BEDS":25,"TRAUMA":"NOT AVAILABLE","HELIPAD":"Y","img":"https://logo.clearbit.com/http://www.chnwi.org","santizer":10,"masks":10,"gloves":10},"0005854452":{"OBJECTID":120,"ID":"0005854452","NAME":"GOOD SAMARITAN HLTH CTR","ADDRESS":"601 S CENTER AVE","CITY":"MERRILL","STATE":"WI","ZIP":"54452","ZIP4":"NOT AVAILABLE","TELEPHONE":"(715) 536-5511","TYPE":"GENERAL ACUTE CARE","STATUS":"OPEN","POPULATION":25,"COUNTY":"LINCOLN","COUNTYFIPS":"55069","COUNTRY":"USA","LATITUDE":45.1756325370001,"LONGITUDE":-89.681831276,"NAICS_CODE":"622110","NAICS_DESC":"GENERAL MEDICAL AND SURGICAL HOSPITALS","SOURCE":"https://www.dhs.wisconsin.gov/guide/hospital.htm","SOURCEDATE":1534118400000,"VAL_METHOD":"IMAGERY","VAL_DATE":1391990400000,"WEBSITE":"http://www.ministryhealth.org","STATE_ID":"1043","ALT_NAME":"NOT AVAILABLE","ST_FIPS":"55","OWNER":"NON-PROFIT","TTL_STAFF":-999,"BEDS":25,"TRAUMA":"LEVEL IV","HELIPAD":"Y","img":"https://logo.clearbit.com/http://www.ministryhealth.org","santizer":10,"masks":10,"gloves":10},"0006753132":{"OBJECTID":121,"ID":"0006753132","NAME":"WHEATON FRANCISCAN HEALTHCARE- FRANKLIN INC","ADDRESS":"10101 SOUTH 27TH STREET","CITY":"FRANKLIN","STATE":"WI","ZIP":"53132","ZIP4":"NOT AVAILABLE","TELEPHONE":"(414) 325-4700","TYPE":"GENERAL ACUTE CARE","STATUS":"OPEN","POPULATION":52,"COUNTY":"MILWAUKEE","COUNTYFIPS":"55079","COUNTRY":"USA","LATITUDE":42.86001258,"LONGITUDE":-87.954068104,"NAICS_CODE":"622110","NAICS_DESC":"GENERAL MEDICAL AND SURGICAL HOSPITALS","SOURCE":"https://www.dhs.wisconsin.gov/guide/hospital.htm","SOURCEDATE":1534118400000,"VAL_METHOD":"IMAGERY","VAL_DATE":1391990400000,"WEBSITE":"http://www.mywheaton.org/","STATE_ID":"314","ALT_NAME":"NOT AVAILABLE","ST_FIPS":"55","OWNER":"NON-PROFIT","TTL_STAFF":-999,"BEDS":52,"TRAUMA":"LEVEL IV","HELIPAD":"N","img":"https://logo.clearbit.com/http://www.mywheaton.org/","santizer":10,"masks":10,"gloves":10},"0007253226":{"OBJECTID":122,"ID":"0007253226","NAME":"FROEDTERT MEM LUTHERAN HSPTL","ADDRESS":"9200 W WISCONSIN AVE","CITY":"MILWAUKEE","STATE":"WI","ZIP":"53226","ZIP4":"NOT AVAILABLE","TELEPHONE":"(414) 805-3000","TYPE":"GENERAL ACUTE CARE","STATUS":"OPEN","POPULATION":596,"COUNTY":"MILWAUKEE","COUNTYFIPS":"55079","COUNTRY":"USA","LATITUDE":43.040861555,"LONGITUDE":-88.024612556,"NAICS_CODE":"622110","NAICS_DESC":"GENERAL MEDICAL AND SURGICAL HOSPITALS","SOURCE":"https://www.dhs.wisconsin.gov/guide/hospital.htm","SOURCEDATE":1534118400000,"VAL_METHOD":"IMAGERY/OTHER","VAL_DATE":1394582400000,"WEBSITE":"http://www.froedtert.com","STATE_ID":"232","ALT_NAME":"NOT AVAILABLE","ST_FIPS":"55","OWNER":"NON-PROFIT","TTL_STAFF":-999,"BEDS":596,"TRAUMA":"LEVEL I","HELIPAD":"Y","img":"https://logo.clearbit.com/http://www.froedtert.com","santizer":10,"masks":10,"gloves":10},"0007853215":{"OBJECTID":123,"ID":"0007853215","NAME":"WHEATON FRANCISCAN HEALTHCARE- ST FRANCIS","ADDRESS":"3237 S 16TH ST","CITY":"MILWAUKEE","STATE":"WI","ZIP":"53215","ZIP4":"NOT AVAILABLE","TELEPHONE":"(414) 647-5000","TYPE":"GENERAL ACUTE CARE","STATUS":"OPEN","POPULATION":260,"COUNTY":"MILWAUKEE","COUNTYFIPS":"55079","COUNTRY":"USA","LATITUDE":42.985657749,"LONGITUDE":-87.9346572919999,"NAICS_CODE":"622110","NAICS_DESC":"GENERAL MEDICAL AND SURGICAL HOSPITALS","SOURCE":"https://www.dhs.wisconsin.gov/guide/hospital.htm","SOURCEDATE":1534118400000,"VAL_METHOD":"IMAGERY","VAL_DATE":1391990400000,"WEBSITE":"http://www.mywheaton.org","STATE_ID":"75","ALT_NAME":"NOT AVAILABLE","ST_FIPS":"55","OWNER":"NON-PROFIT","TTL_STAFF":-999,"BEDS":260,"TRAUMA":"LEVEL IV","HELIPAD":"Y","img":"https://logo.clearbit.com/http://www.mywheaton.org","santizer":10,"masks":10,"gloves":10},"0008053211":{"OBJECTID":124,"ID":"0008053211","NAME":"SACRED HEART REHAB INST","ADDRESS":"2301 NORTH LAKE DRIVE","CITY":"MILWAUKEE","STATE":"WI","ZIP":"53211","ZIP4":"NOT AVAILABLE","TELEPHONE":"(414) 298-6700","TYPE":"REHABILITATION","STATUS":"OPEN","POPULATION":31,"COUNTY":"MILWAUKEE","COUNTYFIPS":"55079","COUNTRY":"USA","LATITUDE":43.060816227,"LONGITUDE":-87.883660363,"NAICS_CODE":"622310","NAICS_DESC":"REHABILITATION HOSPITALS (EXCEPT ALCOHOLISM, DRUG ADDICTION)","SOURCE":"https://www.dhs.wisconsin.gov/guide/hospital.htm","SOURCEDATE":1534118400000,"VAL_METHOD":"IMAGERY","VAL_DATE":1394668800000,"WEBSITE":"http://www.columbia-stmarys.com","STATE_ID":"165","ALT_NAME":"NOT AVAILABLE","ST_FIPS":"55","OWNER":"NON-PROFIT","TTL_STAFF":-999,"BEDS":31,"TRAUMA":"NOT AVAILABLE","HELIPAD":"Y","img":"https://logo.clearbit.com/http://www.columbia-stmarys.com","santizer":10,"masks":10,"gloves":10},"0008253213":{"OBJECTID":125,"ID":"0008253213","NAME":"AURORA PSYCHIATRIC HSPTL","ADDRESS":"1220 DEWEY AVE","CITY":"WAUWATOSA","STATE":"WI","ZIP":"53213","ZIP4":"NOT AVAILABLE","TELEPHONE":"(414) 454-6600","TYPE":"PSYCHIATRIC","STATUS":"OPEN","POPULATION":105,"COUNTY":"MILWAUKEE","COUNTYFIPS":"55079","COUNTRY":"USA","LATITUDE":43.046765098,"LONGITUDE":-88.007716433,"NAICS_CODE":"622210","NAICS_DESC":"PSYCHIATRIC AND SUBSTANCE ABUSE HOSPITALS","SOURCE":"https://www.dhs.wisconsin.gov/guide/hospital.htm","SOURCEDATE":1534118400000,"VAL_METHOD":"IMAGERY","VAL_DATE":1391990400000,"WEBSITE":"http://www.aurorahealthcare.org","STATE_ID":"164","ALT_NAME":"NOT AVAILABLE","ST_FIPS":"55","OWNER":"NON-PROFIT","TTL_STAFF":-999,"BEDS":105,"TRAUMA":"NOT AVAILABLE","HELIPAD":"N","img":"https://logo.clearbit.com/http://www.aurorahealthcare.org","santizer":10,"masks":10,"gloves":10},"0009753097":{"OBJECTID":126,"ID":"0009753097","NAME":"COLUMBIA CENTER","ADDRESS":"13125 N PORT WASHINGTON RD","CITY":"MEQUON","STATE":"WI","ZIP":"53097","ZIP4":"NOT AVAILABLE","TELEPHONE":"(262) 243-7408","TYPE":"GENERAL ACUTE CARE","STATUS":"OPEN","POPULATION":17,"COUNTY":"OZAUKEE","COUNTYFIPS":"55089","COUNTRY":"USA","LATITUDE":43.256677929,"LONGITUDE":-87.926157962,"NAICS_CODE":"622110","NAICS_DESC":"GENERAL MEDICAL AND SURGICAL HOSPITALS","SOURCE":"https://www.dhs.wisconsin.gov/guide/hospital.htm","SOURCEDATE":1534118400000,"VAL_METHOD":"IMAGERY","VAL_DATE":1394582400000,"WEBSITE":"http://www.columbiacenter.org","STATE_ID":"300","ALT_NAME":"NOT AVAILABLE","ST_FIPS":"55","OWNER":"NON-PROFIT","TTL_STAFF":-999,"BEDS":17,"TRAUMA":"NOT AVAILABLE","HELIPAD":"Y","img":"https://logo.clearbit.com/http://www.columbiacenter.org","santizer":10,"masks":10,"gloves":10},"0010454024":{"OBJECTID":127,"ID":"0010454024","NAME":"ST CROIX REG MED CTR","ADDRESS":"235 STATE STREET","CITY":"SAINT CROIX FALLS","STATE":"WI","ZIP":"54024","ZIP4":"NOT AVAILABLE","TELEPHONE":"(715) 483-3261","TYPE":"GENERAL ACUTE CARE","STATUS":"OPEN","POPULATION":25,"COUNTY":"POLK","COUNTYFIPS":"55095","COUNTRY":"USA","LATITUDE":45.4090324310001,"LONGITUDE":-92.642578117,"NAICS_CODE":"622110","NAICS_DESC":"GENERAL MEDICAL AND SURGICAL HOSPITALS","SOURCE":"https://www.dhs.wisconsin.gov/guide/hospital.htm","SOURCEDATE":1534118400000,"VAL_METHOD":"IMAGERY","VAL_DATE":1391990400000,"WEBSITE":"http://www.scrmc.org","STATE_ID":"1041","ALT_NAME":"NOT AVAILABLE","ST_FIPS":"55","OWNER":"NON-PROFIT","TTL_STAFF":-999,"BEDS":25,"TRAUMA":"LEVEL IV","HELIPAD":"Y","img":"https://logo.clearbit.com/http://www.scrmc.org","santizer":10,"masks":10,"gloves":10},"0010554552":{"OBJECTID":128,"ID":"0010554552","NAME":"FLAMBEAU HSPTL","ADDRESS":"98 SHERRY AVE","CITY":"PARK FALLS","STATE":"WI","ZIP":"54552","ZIP4":"NOT AVAILABLE","TELEPHONE":"(715) 762-7500","TYPE":"GENERAL ACUTE CARE","STATUS":"OPEN","POPULATION":25,"COUNTY":"PRICE","COUNTYFIPS":"55099","COUNTRY":"USA","LATITUDE":45.9303153550001,"LONGITUDE":-90.441466465,"NAICS_CODE":"622110","NAICS_DESC":"GENERAL MEDICAL AND SURGICAL HOSPITALS","SOURCE":"https://www.dhs.wisconsin.gov/guide/hospital.htm","SOURCEDATE":1534118400000,"VAL_METHOD":"IMAGERY","VAL_DATE":1391990400000,"WEBSITE":"http://www.flambeauhospital.org","STATE_ID":"1028","ALT_NAME":"NOT AVAILABLE","ST_FIPS":"55","OWNER":"NON-PROFIT","TTL_STAFF":-999,"BEDS":25,"TRAUMA":"LEVEL IV","HELIPAD":"Y","img":"https://logo.clearbit.com/http://www.flambeauhospital.org","santizer":10,"masks":10,"gloves":10},"0010853405":{"OBJECTID":129,"ID":"0010853405","NAME":"WHEATON FRANCISCAN HEALTHCARE- ALL SAINTS","ADDRESS":"3801 SPRING ST","CITY":"RACINE","STATE":"WI","ZIP":"53405","ZIP4":"NOT AVAILABLE","TELEPHONE":"(262) 687-4011","TYPE":"GENERAL ACUTE CARE","STATUS":"OPEN","POPULATION":314,"COUNTY":"RACINE","COUNTYFIPS":"55101","COUNTRY":"USA","LATITUDE":42.7316504460001,"LONGITUDE":-87.82650281,"NAICS_CODE":"622110","NAICS_DESC":"GENERAL MEDICAL AND SURGICAL HOSPITALS","SOURCE":"https://www.dhs.wisconsin.gov/guide/hospital.htm","SOURCEDATE":1534118400000,"VAL_METHOD":"IMAGERY","VAL_DATE":1394582400000,"WEBSITE":"http://www.allsaintshealth.com","STATE_ID":"123","ALT_NAME":"NOT AVAILABLE","ST_FIPS":"55","OWNER":"NON-PROFIT","TTL_STAFF":-999,"BEDS":314,"TRAUMA":"LEVEL III","HELIPAD":"Y","img":"https://logo.clearbit.com/http://www.allsaintshealth.com","santizer":10,"masks":10,"gloves":10},"0011153511":{"OBJECTID":130,"ID":"0011153511","NAME":"BELOIT HEALTH SYSTEM","ADDRESS":"1969 W HART RD","CITY":"BELOIT","STATE":"WI","ZIP":"53511","ZIP4":"NOT AVAILABLE","TELEPHONE":"(608) 364-5011","TYPE":"GENERAL ACUTE CARE","STATUS":"OPEN","POPULATION":256,"COUNTY":"ROCK","COUNTYFIPS":"55105","COUNTRY":"USA","LATITUDE":42.5482977120001,"LONGITUDE":-89.008431523,"NAICS_CODE":"622110","NAICS_DESC":"GENERAL MEDICAL AND SURGICAL HOSPITALS","SOURCE":"https://www.dhs.wisconsin.gov/guide/hospital.htm","SOURCEDATE":1534118400000,"VAL_METHOD":"IMAGERY","VAL_DATE":1394582400000,"WEBSITE":"http://www.beloithealthsystem.org","STATE_ID":"67","ALT_NAME":"NOT AVAILABLE","ST_FIPS":"55","OWNER":"NON-PROFIT","TTL_STAFF":-999,"BEDS":256,"TRAUMA":"LEVEL III","HELIPAD":"Y","img":"https://logo.clearbit.com/http://www.beloithealthsystem.org","santizer":10,"masks":10,"gloves":10},"0011854017":{"OBJECTID":131,"ID":"0011854017","NAME":"WESTFIELDS HOSPITAL","ADDRESS":"535 HOSPITAL RD","CITY":"NEW RICHMOND","STATE":"WI","ZIP":"54017","ZIP4":"NOT AVAILABLE","TELEPHONE":"(715) 246-2101","TYPE":"GENERAL ACUTE CARE","STATUS":"OPEN","POPULATION":25,"COUNTY":"ST. CROIX","COUNTYFIPS":"55109","COUNTRY":"USA","LATITUDE":45.1177607480001,"LONGITUDE":-92.555500378,"NAICS_CODE":"622110","NAICS_DESC":"GENERAL MEDICAL AND SURGICAL HOSPITALS","SOURCE":"https://www.dhs.wisconsin.gov/guide/hospital.htm","SOURCEDATE":1534118400000,"VAL_METHOD":"IMAGERY","VAL_DATE":1394582400000,"WEBSITE":"http://www.westfieldshospital.com","STATE_ID":"1050","ALT_NAME":"NOT AVAILABLE","ST_FIPS":"55","OWNER":"NON-PROFIT","TTL_STAFF":-999,"BEDS":25,"TRAUMA":"LEVEL IV","HELIPAD":"Y","img":"https://logo.clearbit.com/http://www.westfieldshospital.com","santizer":10,"masks":10,"gloves":10},"0012353083":{"OBJECTID":132,"ID":"0012353083","NAME":"AURORA SHEBOYGAN MEM MED CTR","ADDRESS":"2629 N 7TH ST","CITY":"SHEBOYGAN","STATE":"WI","ZIP":"53083","ZIP4":"NOT AVAILABLE","TELEPHONE":"(920) 451-5000","TYPE":"GENERAL ACUTE CARE","STATUS":"OPEN","POPULATION":185,"COUNTY":"SHEBOYGAN","COUNTYFIPS":"55117","COUNTRY":"USA","LATITUDE":43.7733868460001,"LONGITUDE":-87.709995072,"NAICS_CODE":"622110","NAICS_DESC":"GENERAL MEDICAL AND SURGICAL HOSPITALS","SOURCE":"https://www.dhs.wisconsin.gov/guide/hospital.htm","SOURCEDATE":1534118400000,"VAL_METHOD":"IMAGERY","VAL_DATE":1394582400000,"WEBSITE":"http://www.aurorahealthcare.org","STATE_ID":"38","ALT_NAME":"NOT AVAILABLE","ST_FIPS":"55","OWNER":"NON-PROFIT","TTL_STAFF":-999,"BEDS":185,"TRAUMA":"LEVEL IV","HELIPAD":"Y","img":"https://logo.clearbit.com/http://www.aurorahealthcare.org","santizer":10,"masks":10,"gloves":10},"0012453081":{"OBJECTID":133,"ID":"0012453081","NAME":"ST NICHOLAS HOSPITAL","ADDRESS":"3100 SUPERIOR AVE","CITY":"SHEBOYGAN","STATE":"WI","ZIP":"53081","ZIP4":"NOT AVAILABLE","TELEPHONE":"(920) 459-8300","TYPE":"GENERAL ACUTE CARE","STATUS":"OPEN","POPULATION":185,"COUNTY":"SHEBOYGAN","COUNTYFIPS":"55117","COUNTRY":"USA","LATITUDE":43.7623479010001,"LONGITUDE":-87.747537955,"NAICS_CODE":"622110","NAICS_DESC":"GENERAL MEDICAL AND SURGICAL HOSPITALS","SOURCE":"https://www.dhs.wisconsin.gov/guide/hospital.htm","SOURCEDATE":1534118400000,"VAL_METHOD":"IMAGERY","VAL_DATE":1394582400000,"WEBSITE":"http://www.stnicholashospital.org","STATE_ID":"37","ALT_NAME":"NOT AVAILABLE","ST_FIPS":"55","OWNER":"NON-PROFIT","TTL_STAFF":-999,"BEDS":185,"TRAUMA":"LEVEL IV","HELIPAD":"Y","img":"https://logo.clearbit.com/http://www.stnicholashospital.org","santizer":10,"masks":10,"gloves":10},"0012554843":{"OBJECTID":134,"ID":"0012554843","NAME":"HAYWARD AREA MEMORIAL HOSPITAL","ADDRESS":"11040 N STATE RD 77","CITY":"HAYWARD","STATE":"WI","ZIP":"54843","ZIP4":"NOT AVAILABLE","TELEPHONE":"(715) 934-4321","TYPE":"GENERAL ACUTE CARE","STATUS":"OPEN","POPULATION":25,"COUNTY":"SAWYER","COUNTYFIPS":"55113","COUNTRY":"USA","LATITUDE":46.0347967970001,"LONGITUDE":-91.485746875,"NAICS_CODE":"622110","NAICS_DESC":"GENERAL MEDICAL AND SURGICAL HOSPITALS","SOURCE":"https://www.dhs.wisconsin.gov/guide/hospital.htm","SOURCEDATE":1534118400000,"VAL_METHOD":"IMAGERY/OTHER","VAL_DATE":1391990400000,"WEBSITE":"http://www.hamhnh.com","STATE_ID":"1040","ALT_NAME":"NOT AVAILABLE","ST_FIPS":"55","OWNER":"NON-PROFIT","TTL_STAFF":-999,"BEDS":25,"TRAUMA":"NOT AVAILABLE","HELIPAD":"Y","img":"https://logo.clearbit.com/http://www.hamhnh.com","santizer":10,"masks":10,"gloves":10},"0012754773":{"OBJECTID":135,"ID":"0012754773","NAME":"TRI COUNTY MEM HSPTL","ADDRESS":"18601 LINCOLN ST PO BOX 65","CITY":"WHITEHALL","STATE":"WI","ZIP":"54773","ZIP4":"NOT AVAILABLE","TELEPHONE":"(715) 538-4361","TYPE":"GENERAL ACUTE CARE","STATUS":"OPEN","POPULATION":25,"COUNTY":"TREMPEALEAU","COUNTYFIPS":"55121","COUNTRY":"USA","LATITUDE":44.3643262520001,"LONGITUDE":-91.318749501,"NAICS_CODE":"622110","NAICS_DESC":"GENERAL MEDICAL AND SURGICAL HOSPITALS","SOURCE":"https://www.dhs.wisconsin.gov/guide/hospital.htm","SOURCEDATE":1534118400000,"VAL_METHOD":"IMAGERY","VAL_DATE":1391990400000,"WEBSITE":"http://www.tricountymemorial.org/index.html","STATE_ID":"1019","ALT_NAME":"NOT AVAILABLE","ST_FIPS":"55","OWNER":"NON-PROFIT","TTL_STAFF":-999,"BEDS":25,"TRAUMA":"NOT AVAILABLE","HELIPAD":"N","img":"https://logo.clearbit.com/http://www.tricountymemorial.org/index.html","santizer":10,"masks":10,"gloves":10},"0013154665":{"OBJECTID":136,"ID":"0013154665","NAME":"VERNON MEM HSPTL","ADDRESS":"507 SOUTH MAIN ST","CITY":"VIROQUA","STATE":"WI","ZIP":"54665","ZIP4":"NOT AVAILABLE","TELEPHONE":"(608) 637-2101","TYPE":"GENERAL ACUTE CARE","STATUS":"OPEN","POPULATION":25,"COUNTY":"VERNON","COUNTYFIPS":"55123","COUNTRY":"USA","LATITUDE":43.5516739730001,"LONGITUDE":-90.888391278,"NAICS_CODE":"622110","NAICS_DESC":"GENERAL MEDICAL AND SURGICAL HOSPITALS","SOURCE":"https://www.dhs.wisconsin.gov/guide/hospital.htm","SOURCEDATE":1534118400000,"VAL_METHOD":"IMAGERY","VAL_DATE":1391990400000,"WEBSITE":"http://www.vmh.org","STATE_ID":"1053","ALT_NAME":"NOT AVAILABLE","ST_FIPS":"55","OWNER":"NON-PROFIT","TTL_STAFF":-999,"BEDS":25,"TRAUMA":"LEVEL IV","HELIPAD":"N","img":"https://logo.clearbit.com/http://www.vmh.org","santizer":10,"masks":10,"gloves":10},"0015154904":{"OBJECTID":137,"ID":"0015154904","NAME":"AURORA MED CTR OSHKOSH","ADDRESS":"855 N WESTHAVEN DRIVE","CITY":"OSHKOSH","STATE":"WI","ZIP":"54904","ZIP4":"NOT AVAILABLE","TELEPHONE":"(920) 456-6000","TYPE":"GENERAL ACUTE CARE","STATUS":"OPEN","POPULATION":84,"COUNTY":"WINNEBAGO","COUNTYFIPS":"55139","COUNTRY":"USA","LATITUDE":44.0277467770001,"LONGITUDE":-88.595218368,"NAICS_CODE":"622110","NAICS_DESC":"GENERAL MEDICAL AND SURGICAL HOSPITALS","SOURCE":"https://www.dhs.wisconsin.gov/guide/hospital.htm","SOURCEDATE":1534118400000,"VAL_METHOD":"IMAGERY","VAL_DATE":1391990400000,"WEBSITE":"http://www.aurorahealthcare.com","STATE_ID":"307","ALT_NAME":"NOT AVAILABLE","ST_FIPS":"55","OWNER":"NON-PROFIT","TTL_STAFF":-999,"BEDS":84,"TRAUMA":"LEVEL III","HELIPAD":"Y","img":"https://logo.clearbit.com/http://www.aurorahealthcare.com","santizer":10,"masks":10,"gloves":10},"0072390241":{"OBJECTID":138,"ID":"0072390241","NAME":"PIH HOSPITAL - DOWNEY","ADDRESS":"11500 BROOKSHIRE AVENUE","CITY":"DOWNEY","STATE":"CA","ZIP":"90241","ZIP4":"NOT AVAILABLE","TELEPHONE":"(562) 904-5000","TYPE":"GENERAL ACUTE CARE","STATUS":"OPEN","POPULATION":199,"COUNTY":"LOS ANGELES","COUNTYFIPS":"06037","COUNTRY":"USA","LATITUDE":33.9343517980001,"LONGITUDE":-118.13090396,"NAICS_CODE":"622110","NAICS_DESC":"GENERAL MEDICAL AND SURGICAL HOSPITALS","SOURCE":"http://www.oshpd.ca.gov/HID/Facility-Listing.html","SOURCEDATE":1533686400000,"VAL_METHOD":"IMAGERY/OTHER","VAL_DATE":1421193600000,"WEBSITE":"http://www.pihhealth.org/","STATE_ID":"NOT AVAILABLE","ALT_NAME":"DOWNEY REGIONAL MEDICAL CENTER","ST_FIPS":"06","OWNER":"NON-PROFIT","TTL_STAFF":-999,"BEDS":199,"TRAUMA":"NOT AVAILABLE","HELIPAD":"N","img":"https://logo.clearbit.com/http://www.pihhealth.org/","santizer":10,"masks":10,"gloves":10},"0072790503":{"OBJECTID":139,"ID":"0072790503","NAME":"PROVIDENCE LITTLE COMPANY OF MARY TRANSITIONAL CARE CENTER","ADDRESS":"4320 MARICOPA STREET","CITY":"TORRANCE","STATE":"CA","ZIP":"90503","ZIP4":"NOT AVAILABLE","TELEPHONE":"NOT AVAILABLE","TYPE":"GENERAL ACUTE CARE","STATUS":"OPEN","POPULATION":115,"COUNTY":"LOS ANGELES","COUNTYFIPS":"06037","COUNTRY":"USA","LATITUDE":33.8393481160001,"LONGITUDE":-118.359721519,"NAICS_CODE":"622110","NAICS_DESC":"GENERAL MEDICAL AND SURGICAL HOSPITALS","SOURCE":"http://www.oshpd.ca.gov/HID/Facility-Listing.html","SOURCEDATE":1533686400000,"VAL_METHOD":"IMAGERY/OTHER","VAL_DATE":1421193600000,"WEBSITE":"http://california.providence.org/","STATE_ID":"NOT AVAILABLE","ALT_NAME":"NOT AVAILABLE","ST_FIPS":"06","OWNER":"NON-PROFIT","TTL_STAFF":-999,"BEDS":115,"TRAUMA":"NOT AVAILABLE","HELIPAD":"N","img":"https://logo.clearbit.com/http://california.providence.org/","santizer":10,"masks":10,"gloves":10},"0151753805":{"OBJECTID":140,"ID":"0151753805","NAME":"GUNDERSEN BOSCOBEL AREA HOSPITAL AND CLINICS","ADDRESS":"205 PARKER ST","CITY":"BOSCOBEL","STATE":"WI","ZIP":"53805","ZIP4":"NOT AVAILABLE","TELEPHONE":"(608) 375-4112","TYPE":"CRITICAL ACCESS","STATUS":"OPEN","POPULATION":25,"COUNTY":"GRANT","COUNTYFIPS":"55043","COUNTRY":"USA","LATITUDE":43.133184129,"LONGITUDE":-90.7086351569999,"NAICS_CODE":"622110","NAICS_DESC":"GENERAL MEDICAL AND SURGICAL HOSPITALS","SOURCE":"https://www.dhs.wisconsin.gov/guide/hospital.htm","SOURCEDATE":1534118400000,"VAL_METHOD":"IMAGERY/OTHER","VAL_DATE":1427414400000,"WEBSITE":"http://www.gundersenhealth.org/boscobel","STATE_ID":"1048","ALT_NAME":"NOT AVAILABLE","ST_FIPS":"55","OWNER":"NON-PROFIT","TTL_STAFF":-999,"BEDS":25,"TRAUMA":"LEVEL IV","HELIPAD":"Y","img":"https://logo.clearbit.com/http://www.gundersenhealth.org/boscobel","santizer":10,"masks":10,"gloves":10},"0160370526":{"OBJECTID":141,"ID":"0160370526","NAME":"ACADIA GENERAL HOSPITAL","ADDRESS":"1305 CROWLEY RAYNE HIGHWAY","CITY":"CROWLEY","STATE":"LA","ZIP":"70526","ZIP4":"NOT AVAILABLE","TELEPHONE":"(337) 783-3222","TYPE":"GENERAL ACUTE CARE","STATUS":"OPEN","POPULATION":-999,"COUNTY":"ACADIA","COUNTYFIPS":"22001","COUNTRY":"USA","LATITUDE":30.2260091810001,"LONGITUDE":-92.363650712,"NAICS_CODE":"622110","NAICS_DESC":"GENERAL MEDICAL AND SURGICAL HOSPITALS","SOURCE":"http://new.dhh.louisiana.gov/index.cfm/directory/category/169","SOURCEDATE":1534377600000,"VAL_METHOD":"IMAGERY/OTHER","VAL_DATE":1432944000000,"WEBSITE":"http://www.lafayettegeneral.com/our_facilities/main_facilities/acadia_general_hospital.aspx","STATE_ID":"NOT AVAILABLE","ALT_NAME":"NOT AVAILABLE","ST_FIPS":"22","OWNER":"NON-PROFIT","TTL_STAFF":-999,"BEDS":-999,"TRAUMA":"NOT AVAILABLE","HELIPAD":"Y","img":"https://logo.clearbit.com/http://www.lafayettegeneral.com/our_facilities/main_facilities/acadia_general_hospital.aspx","santizer":10,"masks":10,"gloves":10},"0058592354":{"OBJECTID":142,"ID":"0058592354","NAME":"LOMA LINDA UNIVERSITY CHILDREN'S HOSPITAL","ADDRESS":"11234 ANDERSON STREET","CITY":"LOMA LINDA","STATE":"CA","ZIP":"92354","ZIP4":"NOT AVAILABLE","TELEPHONE":"(800) 825-5437","TYPE":"CHILDREN","STATUS":"OPEN","POPULATION":343,"COUNTY":"SAN BERNARDINO","COUNTYFIPS":"06071","COUNTRY":"USA","LATITUDE":34.050130832,"LONGITUDE":-117.264094455,"NAICS_CODE":"622110","NAICS_DESC":"CHILDREN'S HOSPITALS, GENERAL","SOURCE":"http://www.oshpd.ca.gov/HID/Facility-Listing.html","SOURCEDATE":1533686400000,"VAL_METHOD":"IMAGERY/OTHER","VAL_DATE":1455148800000,"WEBSITE":"http://childrens-hospital.lomalindahealth.org/","STATE_ID":"NOT AVAILABLE","ALT_NAME":"NOT AVAILABLE","ST_FIPS":"06","OWNER":"NON-PROFIT","TTL_STAFF":-999,"BEDS":343,"TRAUMA":"NOT AVAILABLE","HELIPAD":"Y","img":"https://logo.clearbit.com/http://childrens-hospital.lomalindahealth.org/","santizer":10,"masks":10,"gloves":10},"0012480528":{"OBJECTID":143,"ID":"0012480528","NAME":"BANNER FORT COLLINS MEDICAL CENTER","ADDRESS":"4700 LADY MOON DR","CITY":"FORT COLLINS","STATE":"CO","ZIP":"80528","ZIP4":"NOT AVAILABLE","TELEPHONE":"(970) 229-4000","TYPE":"GENERAL ACUTE CARE","STATUS":"OPEN","POPULATION":22,"COUNTY":"LARIMER","COUNTYFIPS":"08069","COUNTRY":"USA","LATITUDE":40.521122963,"LONGITUDE":-105.009360686,"NAICS_CODE":"622110","NAICS_DESC":"GENERAL MEDICAL AND SURGICAL HOSPITALS","SOURCE":"http://www.hfemsd2.dphe.state.co.us/hfd2003/homebase.aspx?Ftype=hospital&Do=list","SOURCEDATE":1534118400000,"VAL_METHOD":"IMAGERY/OTHER","VAL_DATE":1457481600000,"WEBSITE":"http://www.bannerhealth.com/Locations/Colorado/Banner+Fort+Collins+Medical+Center/_Banner+Fort+Collins+Medical+Center+home+page.htm","STATE_ID":"NOT AVAILABLE","ALT_NAME":"NOT AVAILABLE","ST_FIPS":"08","OWNER":"NON-PROFIT","TTL_STAFF":-999,"BEDS":22,"TRAUMA":"NOT AVAILABLE","HELIPAD":"Y","img":"https://logo.clearbit.com/http://www.bannerhealth.com/Locations/Colorado/Banner+Fort+Collins+Medical+Center/_Banner+Fort+Collins+Medical+Center+home+page.htm","santizer":10,"masks":10,"gloves":10},"0003906250":{"OBJECTID":144,"ID":"0003906250","NAME":"NATCHAUG HOSPITAL, INC.","ADDRESS":"189 STORRS RD","CITY":"MANSFIELD CENTER","STATE":"CT","ZIP":"06250","ZIP4":"NOT AVAILABLE","TELEPHONE":"(860) 456-1311","TYPE":"PSYCHIATRIC","STATUS":"OPEN","POPULATION":-999,"COUNTY":"TOLLAND","COUNTYFIPS":"09013","COUNTRY":"USA","LATITUDE":41.7411039190001,"LONGITUDE":-72.198011482,"NAICS_CODE":"622210","NAICS_DESC":"PSYCHIATRIC AND SUBSTANCE ABUSE HOSPITALS","SOURCE":"https://www.elicense.ct.gov/Lookup/GenerateRoster.aspx","SOURCEDATE":1534118400000,"VAL_METHOD":"IMAGERY/OTHER","VAL_DATE":1459728000000,"WEBSITE":"http://www.natchaug.org/","STATE_ID":"NOT AVAILABLE","ALT_NAME":"NOT AVAILABLE","ST_FIPS":"09","OWNER":"NON-PROFIT","TTL_STAFF":-999,"BEDS":-999,"TRAUMA":"NOT AVAILABLE","HELIPAD":"N","img":"https://logo.clearbit.com/http://www.natchaug.org/","santizer":10,"masks":10,"gloves":10},"0075420007":{"OBJECTID":145,"ID":"0075420007","NAME":"MEDSTAR-GEORGETOWN UNIVERSITY MEDICAL CENTER","ADDRESS":"3800 RESERVOIR ROAD, NW","CITY":"WASHINGTON","STATE":"DC","ZIP":"20007","ZIP4":"NOT AVAILABLE","TELEPHONE":"(202) 444-2000","TYPE":"GENERAL ACUTE CARE","STATUS":"OPEN","POPULATION":609,"COUNTY":"DISTRICT OF COLUMBIA","COUNTYFIPS":"11001","COUNTRY":"USA","LATITUDE":38.9119585080001,"LONGITUDE":-77.0752545729999,"NAICS_CODE":"622110","NAICS_DESC":"GENERAL MEDICAL AND SURGICAL HOSPITALS","SOURCE":"http://doh.dc.gov/node/173192","SOURCEDATE":1534204800000,"VAL_METHOD":"IMAGERY/OTHER","VAL_DATE":1421712000000,"WEBSITE":"http://www.medstargeorgetown.org/#q={}","STATE_ID":"NOT AVAILABLE","ALT_NAME":"NOT AVAILABLE","ST_FIPS":"11","OWNER":"GOVERNMENT - STATE","TTL_STAFF":-999,"BEDS":609,"TRAUMA":"NOT AVAILABLE","HELIPAD":"Y","img":"https://logo.clearbit.com/http://www.medstargeorgetown.org/#q={}","santizer":10,"masks":10,"gloves":10},"0031233525":{"OBJECTID":146,"ID":"0031233525","NAME":"BAYFRONT HEALTH DADE CITY","ADDRESS":"13100 FORT KING RD","CITY":"DADE CITY","STATE":"FL","ZIP":"33525","ZIP4":"NOT AVAILABLE","TELEPHONE":"(352) 521-1100","TYPE":"GENERAL ACUTE CARE","STATUS":"OPEN","POPULATION":120,"COUNTY":"PASCO","COUNTYFIPS":"12101","COUNTRY":"USA","LATITUDE":28.3479628600001,"LONGITUDE":-82.2007200799999,"NAICS_CODE":"622110","NAICS_DESC":"GENERAL MEDICAL AND SURGICAL HOSPITALS","SOURCE":"http://www.floridahealthfinder.gov/facilitylocator/facilitysearch.aspx","SOURCEDATE":1534291200000,"VAL_METHOD":"IMAGERY","VAL_DATE":1383696000000,"WEBSITE":"www.bayfrontdadecity.com","STATE_ID":"9995","ALT_NAME":"NOT AVAILABLE","ST_FIPS":"12","OWNER":"PROPRIETARY","TTL_STAFF":-999,"BEDS":120,"TRAUMA":"NOT AVAILABLE","HELIPAD":"N","img":"https://logo.clearbit.com/www.bayfrontdadecity.com","santizer":10,"masks":10,"gloves":10},"0007233484":{"OBJECTID":147,"ID":"0007233484","NAME":"DELRAY MEDICAL CENTER","ADDRESS":"5352 LINTON BLVD","CITY":"DELRAY BEACH","STATE":"FL","ZIP":"33484","ZIP4":"NOT AVAILABLE","TELEPHONE":"(561) 498-4440","TYPE":"GENERAL ACUTE CARE","STATUS":"OPEN","POPULATION":536,"COUNTY":"PALM BEACH","COUNTYFIPS":"12099","COUNTRY":"USA","LATITUDE":26.4371928410001,"LONGITUDE":-80.127787747,"NAICS_CODE":"622110","NAICS_DESC":"CHILDREN'S HOSPITALS, GENERAL","SOURCE":"http://www.floridahealthfinder.gov/facilitylocator/facilitysearch.aspx","SOURCEDATE":1534291200000,"VAL_METHOD":"IMAGERY","VAL_DATE":1391990400000,"WEBSITE":"http://www.delraymedicalctr.com","STATE_ID":"10040","ALT_NAME":"NOT AVAILABLE","ST_FIPS":"12","OWNER":"PROPRIETARY","TTL_STAFF":-999,"BEDS":536,"TRAUMA":"LEVEL I","HELIPAD":"Y","img":"https://logo.clearbit.com/http://www.delraymedicalctr.com","santizer":10,"masks":10,"gloves":10},"0036034758":{"OBJECTID":148,"ID":"0036034758","NAME":"POINCIANA MEDICAL CENTER","ADDRESS":"325 CYPRESS PKWY","CITY":"KISSIMMEE","STATE":"FL","ZIP":"34758","ZIP4":"NOT AVAILABLE","TELEPHONE":"(407) 530-2000","TYPE":"GENERAL ACUTE CARE","STATUS":"OPEN","POPULATION":76,"COUNTY":"OSCEOLA","COUNTYFIPS":"12097","COUNTRY":"USA","LATITUDE":28.144780763,"LONGITUDE":-81.476687855,"NAICS_CODE":"622110","NAICS_DESC":"GENERAL MEDICAL AND SURGICAL HOSPITALS","SOURCE":"http://www.floridahealthfinder.gov/facilitylocator/facilitysearch.aspx","SOURCEDATE":1534291200000,"VAL_METHOD":"IMAGERY/OTHER","VAL_DATE":1460332800000,"WEBSITE":"http://poincianamedicalcenter.com/","STATE_ID":"NOT AVAILABLE","ALT_NAME":"NOT AVAILABLE","ST_FIPS":"12","OWNER":"PROPRIETARY","TTL_STAFF":-999,"BEDS":76,"TRAUMA":"NOT AVAILABLE","HELIPAD":"Y","img":"https://logo.clearbit.com/http://poincianamedicalcenter.com/","santizer":10,"masks":10,"gloves":10},"0010102118":{"OBJECTID":149,"ID":"0010102118","NAME":"DR SOLOMON CARTER FULLER MENTAL HEALTH CENTER","ADDRESS":"85 EAST NEWTON ST","CITY":"BOSTON","STATE":"MA","ZIP":"02118","ZIP4":"NOT AVAILABLE","TELEPHONE":"(617) 266-8800","TYPE":"PSYCHIATRIC","STATUS":"OPEN","POPULATION":-999,"COUNTY":"SUFFOLK","COUNTYFIPS":"25025","COUNTRY":"USA","LATITUDE":42.3362671260001,"LONGITUDE":-71.0706904199999,"NAICS_CODE":"622210","NAICS_DESC":"PSYCHIATRIC AND SUBSTANCE ABUSE HOSPITALS","SOURCE":"http://www.mass.gov/eohhs/gov/departments/dph/programs/hcq/healthcare-quality/","SOURCEDATE":1534377600000,"VAL_METHOD":"IMAGERY/OTHER","VAL_DATE":1470009600000,"WEBSITE":"http://www.mass.gov/eohhs/provider/guidelines-resources/clinical-treatment/mental-health/dmh-offices/metro-southeast-boston-office.html","STATE_ID":"2D9E","ALT_NAME":"NOT AVAILABLE","ST_FIPS":"25","OWNER":"GOVERNMENT - STATE","TTL_STAFF":-999,"BEDS":-999,"TRAUMA":"NOT AVAILABLE","HELIPAD":"Y","img":"https://logo.clearbit.com/http://www.mass.gov/eohhs/provider/guidelines-resources/clinical-treatment/mental-health/dmh-offices/metro-southeast-boston-office.html","santizer":10,"masks":10,"gloves":10},"0009802703":{"OBJECTID":150,"ID":"0009802703","NAME":"ARBOUR FULLER HOSPITAL","ADDRESS":"200 MAY STREET","CITY":"ATTLEBORO","STATE":"MA","ZIP":"02703","ZIP4":"NOT AVAILABLE","TELEPHONE":"(508) 761-8500","TYPE":"PSYCHIATRIC","STATUS":"OPEN","POPULATION":103,"COUNTY":"BRISTOL","COUNTYFIPS":"25005","COUNTRY":"USA","LATITUDE":41.9240838480001,"LONGITUDE":-71.3611225619999,"NAICS_CODE":"622210","NAICS_DESC":"PSYCHIATRIC AND SUBSTANCE ABUSE HOSPITALS","SOURCE":"http://www.mass.gov/eohhs/gov/departments/dph/programs/hcq/healthcare-quality/","SOURCEDATE":1534377600000,"VAL_METHOD":"IMAGERY/OTHER","VAL_DATE":1469750400000,"WEBSITE":"http://arbourhealth.com/organizations/arbour-fuller-hospital/","STATE_ID":"2836","ALT_NAME":"NOT AVAILABLE","ST_FIPS":"25","OWNER":"PROPRIETARY","TTL_STAFF":-999,"BEDS":103,"TRAUMA":"NOT AVAILABLE","HELIPAD":"N","img":"https://logo.clearbit.com/http://arbourhealth.com/organizations/arbour-fuller-hospital/","santizer":10,"masks":10,"gloves":10},"0009702146":{"OBJECTID":151,"ID":"0009702146","NAME":"ARBOUR HUMAN RESOURCE INSTITUTE","ADDRESS":"227 BABCOCK STREET","CITY":"BROOKLINE","STATE":"MA","ZIP":"02146","ZIP4":"NOT AVAILABLE","TELEPHONE":"(617) 731-3200","TYPE":"PSYCHIATRIC","STATUS":"OPEN","POPULATION":66,"COUNTY":"NORFOLK","COUNTYFIPS":"25021","COUNTRY":"USA","LATITUDE":42.3507795100001,"LONGITUDE":-71.121242281,"NAICS_CODE":"622210","NAICS_DESC":"PSYCHIATRIC AND SUBSTANCE ABUSE HOSPITALS","SOURCE":"http://www.mass.gov/eohhs/gov/departments/dph/programs/hcq/healthcare-quality/","SOURCEDATE":1534377600000,"VAL_METHOD":"IMAGERY","VAL_DATE":1469750400000,"WEBSITE":"http://arbourhealth.com/organizations/arbour-hri-hospital/","STATE_ID":"2005","ALT_NAME":"NOT AVAILABLE","ST_FIPS":"25","OWNER":"PROPRIETARY","TTL_STAFF":-999,"BEDS":66,"TRAUMA":"NOT AVAILABLE","HELIPAD":"N","img":"https://logo.clearbit.com/http://arbourhealth.com/organizations/arbour-hri-hospital/","santizer":10,"masks":10,"gloves":10},"0036232068":{"OBJECTID":152,"ID":"0036232068","NAME":"ST. VINCENT'S MEDICAL CENTER CLAY COUNTY","ADDRESS":"1670 ST. VINCENT'S WAY","CITY":"MIDDLEBURG","STATE":"FL","ZIP":"32068","ZIP4":"NOT AVAILABLE","TELEPHONE":"(904) 602-1000","TYPE":"GENERAL ACUTE CARE","STATUS":"OPEN","POPULATION":106,"COUNTY":"CLAY","COUNTYFIPS":"12019","COUNTRY":"USA","LATITUDE":30.108762428,"LONGITUDE":-81.832688692,"NAICS_CODE":"622110","NAICS_DESC":"GENERAL MEDICAL AND SURGICAL HOSPITALS","SOURCE":"http://www.floridahealthfinder.gov/facilitylocator/facilitysearch.aspx","SOURCEDATE":1534291200000,"VAL_METHOD":"IMAGERY/OTHER","VAL_DATE":1460419200000,"WEBSITE":"http://www.jaxhealth.com/","STATE_ID":"NOT AVAILABLE","ALT_NAME":"NOT AVAILABLE","ST_FIPS":"12","OWNER":"NON-PROFIT","TTL_STAFF":-999,"BEDS":106,"TRAUMA":"NOT AVAILABLE","HELIPAD":"Y","img":"https://logo.clearbit.com/http://www.jaxhealth.com/","santizer":10,"masks":10,"gloves":10},"0036334471":{"OBJECTID":153,"ID":"0036334471","NAME":"HEALTHSOUTH REHABILITATION HOSPITAL OF OCALA","ADDRESS":"2275 SW 22ND LANE","CITY":"OCALA","STATE":"FL","ZIP":"34471","ZIP4":"NOT AVAILABLE","TELEPHONE":"(352) 282-4000","TYPE":"REHABILITATION","STATUS":"OPEN","POPULATION":60,"COUNTY":"MARION","COUNTYFIPS":"12083","COUNTRY":"USA","LATITUDE":29.165875541,"LONGITUDE":-82.1623349449999,"NAICS_CODE":"622310","NAICS_DESC":"REHABILITATION HOSPITALS (EXCEPT ALCOHOLISM, DRUG ADDICTION)","SOURCE":"http://www.floridahealthfinder.gov/facilitylocator/facilitysearch.aspx","SOURCEDATE":1534291200000,"VAL_METHOD":"IMAGERY","VAL_DATE":1460419200000,"WEBSITE":"http://healthsouthocala.com/","STATE_ID":"NOT AVAILABLE","ALT_NAME":"NOT AVAILABLE","ST_FIPS":"12","OWNER":"PROPRIETARY","TTL_STAFF":-999,"BEDS":60,"TRAUMA":"NOT AVAILABLE","HELIPAD":"N","img":"https://logo.clearbit.com/http://healthsouthocala.com/","santizer":10,"masks":10,"gloves":10},"0036634997":{"OBJECTID":154,"ID":"0036634997","NAME":"HEALTHSOUTH REHABILITATION HOSPITAL AT MARTIN HEALTH","ADDRESS":"5850 SE COMMUNITY DR","CITY":"STUART","STATE":"FL","ZIP":"34997","ZIP4":"NOT AVAILABLE","TELEPHONE":"(772) 324-3522","TYPE":"REHABILITATION","STATUS":"OPEN","POPULATION":54,"COUNTY":"MARTIN","COUNTYFIPS":"12085","COUNTRY":"USA","LATITUDE":27.133437293,"LONGITUDE":-80.222455815,"NAICS_CODE":"622110","NAICS_DESC":"GENERAL MEDICAL AND SURGICAL HOSPITALS","SOURCE":"http://www.floridahealthfinder.gov/facilitylocator/facilitysearch.aspx","SOURCEDATE":1534291200000,"VAL_METHOD":"IMAGERY/OTHER","VAL_DATE":1460505600000,"WEBSITE":"http://www.healthsouthmartin.com/","STATE_ID":"NOT AVAILABLE","ALT_NAME":"NOT AVAILABLE","ST_FIPS":"12","OWNER":"PROPRIETARY","TTL_STAFF":-999,"BEDS":54,"TRAUMA":"NOT AVAILABLE","HELIPAD":"N","img":"https://logo.clearbit.com/http://www.healthsouthmartin.com/","santizer":10,"masks":10,"gloves":10},"0013050144":{"OBJECTID":155,"ID":"0013050144","NAME":"DECATUR COUNTY HOSPITAL","ADDRESS":"1405 NORTHWEST CHURCH STREET","CITY":"LEON","STATE":"IA","ZIP":"50144","ZIP4":"NOT AVAILABLE","TELEPHONE":"(641) 446-4871","TYPE":"GENERAL ACUTE CARE","STATUS":"OPEN","POPULATION":25,"COUNTY":"DECATUR","COUNTYFIPS":"19053","COUNTRY":"USA","LATITUDE":40.7508760800001,"LONGITUDE":-93.745476151,"NAICS_CODE":"622110","NAICS_DESC":"GENERAL MEDICAL AND SURGICAL HOSPITALS","SOURCE":"https://dia-hfd.iowa.gov/DIA_HFD/CTLEntitySearch.do","SOURCEDATE":1533772800000,"VAL_METHOD":"IMAGERY","VAL_DATE":1460678400000,"WEBSITE":"http://www.decaturcountyhospital.org","STATE_ID":"NOT AVAILABLE","ALT_NAME":"NOT AVAILABLE","ST_FIPS":"19","OWNER":"GOVERNMENT - LOCAL","TTL_STAFF":-999,"BEDS":25,"TRAUMA":"LEVEL IV","HELIPAD":"Y","img":"https://logo.clearbit.com/http://www.decaturcountyhospital.org","santizer":10,"masks":10,"gloves":10},"0010502114":{"OBJECTID":156,"ID":"0010502114","NAME":"SHRINERS' HOSPITAL FOR CHILDREN","ADDRESS":"51 BLOSSOM ST","CITY":"BOSTON","STATE":"MA","ZIP":"02114","ZIP4":"NOT AVAILABLE","TELEPHONE":"(617) 722-3000","TYPE":"CHILDREN","STATUS":"OPEN","POPULATION":30,"COUNTY":"SUFFOLK","COUNTYFIPS":"25025","COUNTRY":"USA","LATITUDE":42.3630925480001,"LONGITUDE":-71.066301879,"NAICS_CODE":"622110","NAICS_DESC":"CHILDREN'S HOSPITALS, GENERAL","SOURCE":"http://www.mass.gov/eohhs/gov/departments/dph/programs/hcq/healthcare-quality/","SOURCEDATE":1534377600000,"VAL_METHOD":"IMAGERY","VAL_DATE":1470009600000,"WEBSITE":"http://www.shrinershospitalsforchildren.org/Locations/boston","STATE_ID":"2316","ALT_NAME":"NOT AVAILABLE","ST_FIPS":"25","OWNER":"NON-PROFIT","TTL_STAFF":-999,"BEDS":30,"TRAUMA":"NOT AVAILABLE","HELIPAD":"N","img":"https://logo.clearbit.com/http://www.shrinershospitalsforchildren.org/Locations/boston","santizer":10,"masks":10,"gloves":10},"0010602129":{"OBJECTID":157,"ID":"0010602129","NAME":"SPAULDING REHABILITATION HOSPITAL","ADDRESS":"300 1ST AVE","CITY":"BOSTON","STATE":"MA","ZIP":"02129","ZIP4":"NOT AVAILABLE","TELEPHONE":"(617) 573-7000","TYPE":"REHABILITATION","STATUS":"OPEN","POPULATION":132,"COUNTY":"SUFFOLK","COUNTYFIPS":"25025","COUNTRY":"USA","LATITUDE":42.3785090760001,"LONGITUDE":-71.049055546,"NAICS_CODE":"622310","NAICS_DESC":"REHABILITATION HOSPITALS (EXCEPT ALCOHOLISM, DRUG ADDICTION)","SOURCE":"http://www.mass.gov/eohhs/gov/departments/dph/programs/hcq/healthcare-quality/","SOURCEDATE":1534377600000,"VAL_METHOD":"IMAGERY","VAL_DATE":1470009600000,"WEBSITE":"http://spauldingrehab.org/","STATE_ID":"2321","ALT_NAME":"NOT AVAILABLE","ST_FIPS":"25","OWNER":"NON-PROFIT","TTL_STAFF":-999,"BEDS":132,"TRAUMA":"NOT AVAILABLE","HELIPAD":"N","img":"https://logo.clearbit.com/http://spauldingrehab.org/","santizer":10,"masks":10,"gloves":10},"0004466032":{"OBJECTID":158,"ID":"0004466032","NAME":"ANDERSON COUNTY HOSPITAL","ADDRESS":"421 SOUTH MAPLE STREET","CITY":"GARNETT","STATE":"KS","ZIP":"66032","ZIP4":"NOT AVAILABLE","TELEPHONE":"(785) 204-4000","TYPE":"CRITICAL ACCESS","STATUS":"OPEN","POPULATION":41,"COUNTY":"ANDERSON","COUNTYFIPS":"20003","COUNTRY":"USA","LATITUDE":38.2798769950001,"LONGITUDE":-95.250338654,"NAICS_CODE":"622110","NAICS_DESC":"GENERAL MEDICAL AND SURGICAL HOSPITALS","SOURCE":"http://www.kdheks.gov/bhfr/fac_list/","SOURCEDATE":1534377600000,"VAL_METHOD":"IMAGERY","VAL_DATE":1391990400000,"WEBSITE":"http://www.saint-lukes.org","STATE_ID":"H002001","ALT_NAME":"SAINT LUKE'S HOSPITAL OF  GARNETT DBA ANDERSON COUNTY HOSPITAL","ST_FIPS":"20","OWNER":"NON-PROFIT","TTL_STAFF":-999,"BEDS":41,"TRAUMA":"LEVEL IV","HELIPAD":"Y","img":"https://logo.clearbit.com/http://www.saint-lukes.org","santizer":10,"masks":10,"gloves":10},"0003666103":{"OBJECTID":159,"ID":"0003666103","NAME":"RAINBOW MENTAL HLTH FACILITY","ADDRESS":"2205 WEST 36TH AVENUE","CITY":"KANSAS CITY","STATE":"KS","ZIP":"66103","ZIP4":"NOT AVAILABLE","TELEPHONE":"(913) 789-5800","TYPE":"PSYCHIATRIC","STATUS":"CLOSED","POPULATION":36,"COUNTY":"WYANDOTTE","COUNTYFIPS":"20209","COUNTRY":"USA","LATITUDE":39.059961867,"LONGITUDE":-94.610572686,"NAICS_CODE":"622210","NAICS_DESC":"HOSPITALS, PSYCHIATRIC (EXCEPT CONVALESCENT)","SOURCE":"http://www.kdheks.gov/bhfr/fac_list/","SOURCEDATE":1369872000000,"VAL_METHOD":"IMAGERY","VAL_DATE":1391990400000,"WEBSITE":"http://www.srskansas.org/osh/osh-rmhf_main.html","STATE_ID":"NOT AVAILABLE","ALT_NAME":"STATE OF KANSAS DEPARTMENT","ST_FIPS":"20","OWNER":"GOVERNMENT - STATE","TTL_STAFF":-999,"BEDS":36,"TRAUMA":"NOT AVAILABLE","HELIPAD":"N","img":"https://logo.clearbit.com/http://www.srskansas.org/osh/osh-rmhf_main.html","santizer":10,"masks":10,"gloves":10},"0007567860":{"OBJECTID":160,"ID":"0007567860","NAME":"KEARNY COUNTY HOSPITAL","ADDRESS":"500 THORPE STREET","CITY":"LAKIN","STATE":"KS","ZIP":"67860","ZIP4":"NOT AVAILABLE","TELEPHONE":"(620) 355-7111","TYPE":"CRITICAL ACCESS","STATUS":"OPEN","POPULATION":25,"COUNTY":"KEARNY","COUNTYFIPS":"20093","COUNTRY":"USA","LATITUDE":37.9465932690001,"LONGITUDE":-101.251929912,"NAICS_CODE":"622110","NAICS_DESC":"GENERAL MEDICAL AND SURGICAL HOSPITALS","SOURCE":"http://www.kdheks.gov/bhfr/fac_list/","SOURCEDATE":1534377600000,"VAL_METHOD":"IMAGERY","VAL_DATE":1391990400000,"WEBSITE":"http://www.kearnycountyhospital.com","STATE_ID":"H047001","ALT_NAME":"KEARNY COUNTY HEALTH CARE FOUNDATION","ST_FIPS":"20","OWNER":"GOVERNMENT - LOCAL","TTL_STAFF":-999,"BEDS":25,"TRAUMA":"NOT AVAILABLE","HELIPAD":"N","img":"https://logo.clearbit.com/http://www.kearnycountyhospital.com","santizer":10,"masks":10,"gloves":10},"0008467901":{"OBJECTID":161,"ID":"0008467901","NAME":"SOUTHWEST MEDICAL CENTER","ADDRESS":"315 WEST 15TH STREET","CITY":"LIBERAL","STATE":"KS","ZIP":"67901","ZIP4":"NOT AVAILABLE","TELEPHONE":"(620) 629-6291","TYPE":"GENERAL ACUTE CARE","STATUS":"OPEN","POPULATION":101,"COUNTY":"SEWARD","COUNTYFIPS":"20175","COUNTRY":"USA","LATITUDE":37.0566830760001,"LONGITUDE":-100.926788287,"NAICS_CODE":"622110","NAICS_DESC":"GENERAL MEDICAL AND SURGICAL HOSPITALS","SOURCE":"http://www.kdheks.gov/bhfr/fac_list/","SOURCEDATE":1534377600000,"VAL_METHOD":"IMAGERY","VAL_DATE":1391990400000,"WEBSITE":"http://www.swmedcenter.com","STATE_ID":"H088001","ALT_NAME":"SOUTHWEST MEDICAL CENTER","ST_FIPS":"20","OWNER":"GOVERNMENT - LOCAL","TTL_STAFF":-999,"BEDS":101,"TRAUMA":"NOT AVAILABLE","HELIPAD":"N","img":"https://logo.clearbit.com/http://www.swmedcenter.com","santizer":10,"masks":10,"gloves":10},"0006967547":{"OBJECTID":162,"ID":"0006967547","NAME":"EDWARDS COUNTY HOSPITAL","ADDRESS":"620 WEST EIGHTH STREET","CITY":"KINSLEY","STATE":"KS","ZIP":"67547","ZIP4":"NOT AVAILABLE","TELEPHONE":"(620) 659-3621","TYPE":"CRITICAL ACCESS","STATUS":"OPEN","POPULATION":22,"COUNTY":"EDWARDS","COUNTYFIPS":"20047","COUNTRY":"USA","LATITUDE":37.9212464240001,"LONGITUDE":-99.4202221209999,"NAICS_CODE":"622110","NAICS_DESC":"GENERAL MEDICAL AND SURGICAL HOSPITALS","SOURCE":"http://www.kdheks.gov/bhfr/fac_list/","SOURCEDATE":1534377600000,"VAL_METHOD":"IMAGERY","VAL_DATE":1391990400000,"WEBSITE":"http://www.edwardscohospital.com","STATE_ID":"H024001","ALT_NAME":"EDWARDS COUNTY HOSPITAL","ST_FIPS":"20","OWNER":"GOVERNMENT - LOCAL","TTL_STAFF":-999,"BEDS":22,"TRAUMA":"NOT AVAILABLE","HELIPAD":"Y","img":"https://logo.clearbit.com/http://www.edwardscohospital.com","santizer":10,"masks":10,"gloves":10},"0007767467":{"OBJECTID":163,"ID":"0007767467","NAME":"OTTAWA COUNTY HEALTH CENTER","ADDRESS":"215 E 8TH STREET","CITY":"MINNEAPOLIS","STATE":"KS","ZIP":"67467","ZIP4":"NOT AVAILABLE","TELEPHONE":"(785) 392-2122","TYPE":"CRITICAL ACCESS","STATUS":"OPEN","POPULATION":42,"COUNTY":"OTTAWA","COUNTYFIPS":"20143","COUNTRY":"USA","LATITUDE":39.1293319640001,"LONGITUDE":-97.7039442509999,"NAICS_CODE":"622110","NAICS_DESC":"GENERAL MEDICAL AND SURGICAL HOSPITALS","SOURCE":"http://www.kdheks.gov/bhfr/fac_list/","SOURCEDATE":1534377600000,"VAL_METHOD":"IMAGERY","VAL_DATE":1391990400000,"WEBSITE":"http://www.ottawacountyhealthcenter.com","STATE_ID":"H072001","ALT_NAME":"GREAT PLAINS HEALTH ALLIANCE INC","ST_FIPS":"20","OWNER":"NON-PROFIT","TTL_STAFF":-999,"BEDS":42,"TRAUMA":"NOT AVAILABLE","HELIPAD":"N","img":"https://logo.clearbit.com/http://www.ottawacountyhealthcenter.com","santizer":10,"masks":10,"gloves":10},"0011402720":{"OBJECTID":164,"ID":"0011402720","NAME":"DR JOHN C CORRIGAN MENTAL HEALTH CENTER","ADDRESS":"49 HILLSIDE STREET","CITY":"FALL RIVER","STATE":"MA","ZIP":"02720","ZIP4":"NOT AVAILABLE","TELEPHONE":"(508) 295-0880","TYPE":"PSYCHIATRIC","STATUS":"OPEN","POPULATION":-999,"COUNTY":"BRISTOL","COUNTYFIPS":"25005","COUNTRY":"USA","LATITUDE":41.707486913,"LONGITUDE":-71.145714465,"NAICS_CODE":"622210","NAICS_DESC":"PSYCHIATRIC AND SUBSTANCE ABUSE HOSPITALS","SOURCE":"http://www.mass.gov/eohhs/gov/departments/dph/programs/hcq/healthcare-quality/","SOURCEDATE":1534377600000,"VAL_METHOD":"IMAGERY/OTHER","VAL_DATE":1470009600000,"WEBSITE":"NOT AVAILABLE","STATE_ID":"2C7R","ALT_NAME":"NOT AVAILABLE","ST_FIPS":"25","OWNER":"GOVERNMENT - STATE","TTL_STAFF":-999,"BEDS":-999,"TRAUMA":"NOT AVAILABLE","HELIPAD":"N","img":"https://logo.clearbit.com/NOT AVAILABLE","santizer":10,"masks":10,"gloves":10},"0012101904":{"OBJECTID":165,"ID":"0012101904","NAME":"BAY RIDGE HOSPITAL BEVERLY","ADDRESS":"60 GRANITE STREET","CITY":"LYNN","STATE":"MA","ZIP":"01904","ZIP4":"NOT AVAILABLE","TELEPHONE":"(781) 922-3000","TYPE":"PSYCHIATRIC","STATUS":"OPEN","POPULATION":62,"COUNTY":"ESSEX","COUNTYFIPS":"25009","COUNTRY":"USA","LATITUDE":42.471620106,"LONGITUDE":-70.956760931,"NAICS_CODE":"622210","NAICS_DESC":"PSYCHIATRIC AND SUBSTANCE ABUSE HOSPITALS","SOURCE":"http://www.mass.gov/eohhs/gov/departments/dph/programs/hcq/healthcare-quality/","SOURCEDATE":1534377600000,"VAL_METHOD":"IMAGERY","VAL_DATE":1470009600000,"WEBSITE":"http://www.beverlyhospital.org/locations--services/locations/bayridge-hospital","STATE_ID":"2M5H","ALT_NAME":"NOT AVAILABLE","ST_FIPS":"25","OWNER":"NON-PROFIT","TTL_STAFF":-999,"BEDS":62,"TRAUMA":"NOT AVAILABLE","HELIPAD":"N","img":"https://logo.clearbit.com/http://www.beverlyhospital.org/locations--services/locations/bayridge-hospital","santizer":10,"masks":10,"gloves":10},"0012001056":{"OBJECTID":166,"ID":"0012001056","NAME":"HEALTHSOUTH REHABILITATION HOSPITAL OF WESTERN MASS","ADDRESS":"222 STATE STREET","CITY":"LUDLOW","STATE":"MA","ZIP":"01056","ZIP4":"NOT AVAILABLE","TELEPHONE":"(413) 583-8820","TYPE":"REHABILITATION","STATUS":"OPEN","POPULATION":53,"COUNTY":"HAMPDEN","COUNTYFIPS":"25013","COUNTRY":"USA","LATITUDE":42.155775937,"LONGITUDE":-72.472077338,"NAICS_CODE":"622310","NAICS_DESC":"REHABILITATION HOSPITALS (EXCEPT ALCOHOLISM, DRUG ADDICTION)","SOURCE":"http://www.mass.gov/eohhs/gov/departments/dph/programs/hcq/healthcare-quality/","SOURCEDATE":1534377600000,"VAL_METHOD":"IMAGERY/OTHER","VAL_DATE":1470009600000,"WEBSITE":"http://www.healthsouthrehab.org/en/our-hospital","STATE_ID":"2912","ALT_NAME":"NOT AVAILABLE","ST_FIPS":"25","OWNER":"PROPRIETARY","TTL_STAFF":-999,"BEDS":53,"TRAUMA":"NOT AVAILABLE","HELIPAD":"N","img":"https://logo.clearbit.com/http://www.healthsouthrehab.org/en/our-hospital","santizer":10,"masks":10,"gloves":10},"0003502492":{"OBJECTID":167,"ID":"0003502492","NAME":"BETH ISRAEL DEACONESS HOSPITAL - NEEDHAM","ADDRESS":"148 CHESTNUT STREET","CITY":"NEEDHAM","STATE":"MA","ZIP":"02492","ZIP4":"NOT AVAILABLE","TELEPHONE":"(781) 453-3000","TYPE":"GENERAL ACUTE CARE","STATUS":"OPEN","POPULATION":58,"COUNTY":"NORFOLK","COUNTYFIPS":"25021","COUNTRY":"USA","LATITUDE":42.2771000000001,"LONGITUDE":-71.2368999999999,"NAICS_CODE":"622110","NAICS_DESC":"GENERAL MEDICAL AND SURGICAL HOSPITALS","SOURCE":"http://www.mass.gov/eohhs/gov/departments/dph/programs/hcq/healthcare-quality/","SOURCEDATE":1534377600000,"VAL_METHOD":"IMAGERY/OTHER","VAL_DATE":1391990400000,"WEBSITE":"http://www.bidmc.org/CentersandDepartments/Departments/OtherLocations/BethIsraelDeaconessHospitalNeedham.aspx","STATE_ID":"2054","ALT_NAME":"BETH ISRAEL DEACONESS HOSPITAL","ST_FIPS":"25","OWNER":"NON-PROFIT","TTL_STAFF":-999,"BEDS":58,"TRAUMA":"NOT AVAILABLE","HELIPAD":"N","img":"https://logo.clearbit.com/http://www.bidmc.org/CentersandDepartments/Departments/OtherLocations/BethIsraelDeaconessHospitalNeedham.aspx","santizer":10,"masks":10,"gloves":10},"0012402745":{"OBJECTID":168,"ID":"0012402745","NAME":"VIBRA HOSPITAL OF SOUTHWESTERN MASSACHUSETTS","ADDRESS":"4499 ACUSHNET AVENUE","CITY":"NEW BEDFORD","STATE":"MA","ZIP":"02745","ZIP4":"NOT AVAILABLE","TELEPHONE":"(508) 995-6900","TYPE":"REHABILITATION","STATUS":"OPEN","POPULATION":90,"COUNTY":"BRISTOL","COUNTYFIPS":"25005","COUNTRY":"USA","LATITUDE":41.740725232,"LONGITUDE":-70.945753607,"NAICS_CODE":"622310","NAICS_DESC":"REHABILITATION HOSPITALS (EXCEPT ALCOHOLISM, DRUG ADDICTION)","SOURCE":"http://www.mass.gov/eohhs/gov/departments/dph/programs/hcq/healthcare-quality/","SOURCEDATE":1534377600000,"VAL_METHOD":"IMAGERY","VAL_DATE":1470009600000,"WEBSITE":"http://www.vhmass.com/","STATE_ID":"2224","ALT_NAME":"NEW BEDFORD REHABILITATION HOSPITAL","ST_FIPS":"25","OWNER":"PROPRIETARY","TTL_STAFF":-999,"BEDS":90,"TRAUMA":"NOT AVAILABLE","HELIPAD":"N","img":"https://logo.clearbit.com/http://www.vhmass.com/","santizer":10,"masks":10,"gloves":10},"0004002062":{"OBJECTID":169,"ID":"0004002062","NAME":"NORWOOD HOSPITAL","ADDRESS":"800 WASHINGTON ROAD","CITY":"NORWOOD","STATE":"MA","ZIP":"02062","ZIP4":"NOT AVAILABLE","TELEPHONE":"(781) 769-4000","TYPE":"GENERAL ACUTE CARE","STATUS":"OPEN","POPULATION":215,"COUNTY":"NORFOLK","COUNTYFIPS":"25021","COUNTRY":"USA","LATITUDE":42.1890000000001,"LONGITUDE":-71.2021,"NAICS_CODE":"622110","NAICS_DESC":"GENERAL MEDICAL AND SURGICAL HOSPITALS","SOURCE":"http://www.mass.gov/eohhs/gov/departments/dph/programs/hcq/healthcare-quality/","SOURCEDATE":1534377600000,"VAL_METHOD":"IMAGERY/OTHER","VAL_DATE":1391990400000,"WEBSITE":"https://www.norwood-hospital.org/","STATE_ID":"2114","ALT_NAME":"NORWOOD HOSPITAL","ST_FIPS":"25","OWNER":"PROPRIETARY","TTL_STAFF":-999,"BEDS":215,"TRAUMA":"NOT AVAILABLE","HELIPAD":"Y","img":"https://logo.clearbit.com/https://www.norwood-hospital.org/","santizer":10,"masks":10,"gloves":10},"0012602537":{"OBJECTID":170,"ID":"0012602537","NAME":"SPAULDING REHABILITATION HOSPITAL CAPE COD","ADDRESS":"311 SERVICE ROAD","CITY":"SANDWICH","STATE":"MA","ZIP":"02537","ZIP4":"NOT AVAILABLE","TELEPHONE":"(508) 833-4000","TYPE":"REHABILITATION","STATUS":"OPEN","POPULATION":60,"COUNTY":"BARNSTABLE","COUNTYFIPS":"25001","COUNTRY":"USA","LATITUDE":41.7329844970001,"LONGITUDE":-70.4681028369999,"NAICS_CODE":"622310","NAICS_DESC":"REHABILITATION HOSPITALS (EXCEPT ALCOHOLISM, DRUG ADDICTION)","SOURCE":"http://www.mass.gov/eohhs/gov/departments/dph/programs/hcq/healthcare-quality/","SOURCEDATE":1534377600000,"VAL_METHOD":"IMAGERY/OTHER","VAL_DATE":1470096000000,"WEBSITE":"http://spauldingrehab.org/locations/sandwich-ma/","STATE_ID":"2FXY","ALT_NAME":"NOT AVAILABLE","ST_FIPS":"25","OWNER":"NON-PROFIT","TTL_STAFF":-999,"BEDS":60,"TRAUMA":"NOT AVAILABLE","HELIPAD":"N","img":"https://logo.clearbit.com/http://spauldingrehab.org/locations/sandwich-ma/","santizer":10,"masks":10,"gloves":10},"0006702143":{"OBJECTID":171,"ID":"0006702143","NAME":"CAMBRIDGE HEALTH ALLIANCE - SOMERVILLE CAMPUS","ADDRESS":"230 HIGHLAND AVENUE","CITY":"SOMERVILLE","STATE":"MA","ZIP":"02143","ZIP4":"NOT AVAILABLE","TELEPHONE":"NOT AVAILABLE","TYPE":"GENERAL ACUTE CARE","STATUS":"OPEN","POPULATION":124,"COUNTY":"MIDDLESEX","COUNTYFIPS":"25017","COUNTRY":"USA","LATITUDE":42.39,"LONGITUDE":-71.1093999999999,"NAICS_CODE":"622110","NAICS_DESC":"GENERAL MEDICAL AND SURGICAL HOSPITALS","SOURCE":"http://www.mass.gov/eohhs/gov/departments/dph/programs/hcq/healthcare-quality/","SOURCEDATE":1534377600000,"VAL_METHOD":"IMAGERY/OTHER","VAL_DATE":1387152000000,"WEBSITE":"http://www.challiance.org/Locations/SomervilleHospitalcampus.aspx","STATE_ID":"67","ALT_NAME":"SOMERVILLE HOSPITAL","ST_FIPS":"25","OWNER":"GOVERNMENT - DISTRICT/AUTHORITY","TTL_STAFF":-999,"BEDS":124,"TRAUMA":"NOT AVAILABLE","HELIPAD":"N","img":"https://logo.clearbit.com/http://www.challiance.org/Locations/SomervilleHospitalcampus.aspx","santizer":10,"masks":10,"gloves":10},"0012701104":{"OBJECTID":172,"ID":"0012701104","NAME":"SHRINERS' HOSPITAL FOR CHILDREN","ADDRESS":"516 CAREW ST","CITY":"SPRINGFIELD","STATE":"MA","ZIP":"01104","ZIP4":"NOT AVAILABLE","TELEPHONE":"(413) 787-2000","TYPE":"CHILDREN","STATUS":"OPEN","POPULATION":40,"COUNTY":"HAMPDEN","COUNTYFIPS":"25013","COUNTRY":"USA","LATITUDE":42.121315027,"LONGITUDE":-72.59237295,"NAICS_CODE":"622110","NAICS_DESC":"CHILDREN'S HOSPITALS, GENERAL","SOURCE":"http://www.mass.gov/eohhs/gov/departments/dph/programs/hcq/healthcare-quality/","SOURCEDATE":1534377600000,"VAL_METHOD":"IMAGERY","VAL_DATE":1470096000000,"WEBSITE":"http://www.shrinershospitalsforchildren.org/Locations/springfield","STATE_ID":"2152","ALT_NAME":"NOT AVAILABLE","ST_FIPS":"25","OWNER":"NON-PROFIT","TTL_STAFF":-999,"BEDS":40,"TRAUMA":"NOT AVAILABLE","HELIPAD":"N","img":"https://logo.clearbit.com/http://www.shrinershospitalsforchildren.org/Locations/springfield","santizer":10,"masks":10,"gloves":10},"0000372903":{"OBJECTID":173,"ID":"0000372903","NAME":"MERCY HOSPITAL FORT SMITH","ADDRESS":"7301 ROGERS AVENUE","CITY":"FORT SMITH","STATE":"AR","ZIP":"72903","ZIP4":"NOT AVAILABLE","TELEPHONE":"(479) 314-6000","TYPE":"GENERAL ACUTE CARE","STATUS":"OPEN","POPULATION":336,"COUNTY":"SEBASTIAN","COUNTYFIPS":"05131","COUNTRY":"USA","LATITUDE":35.355865991,"LONGITUDE":-94.352054967,"NAICS_CODE":"622110","NAICS_DESC":"GENERAL MEDICAL AND SURGICAL HOSPITALS","SOURCE":"http://www.healthy.arkansas.gov/programsServices/hsLicensingRegulation/HealthFacilityServices/Pages/ProviderLists.aspx","SOURCEDATE":1533686400000,"VAL_METHOD":"IMAGERY/OTHER","VAL_DATE":1391990400000,"WEBSITE":"http://www.stedwardmercy.com","STATE_ID":"040062","ALT_NAME":"NOT AVAILABLE","ST_FIPS":"05","OWNER":"NON-PROFIT","TTL_STAFF":-999,"BEDS":336,"TRAUMA":"LEVEL III","HELIPAD":"Y","img":"https://logo.clearbit.com/http://www.stedwardmercy.com","santizer":10,"masks":10,"gloves":10},"0007472901":{"OBJECTID":174,"ID":"0007472901","NAME":"HEALTHSOUTH REHABILITATION HOSPITAL OF FORT SMITH","ADDRESS":"1401 SOUTH J STREET","CITY":"FORT SMITH","STATE":"AR","ZIP":"72901","ZIP4":"NOT AVAILABLE","TELEPHONE":"(479) 785-3300","TYPE":"REHABILITATION","STATUS":"OPEN","POPULATION":80,"COUNTY":"SEBASTIAN","COUNTYFIPS":"05131","COUNTRY":"USA","LATITUDE":35.3739403050001,"LONGITUDE":-94.4187544819999,"NAICS_CODE":"622310","NAICS_DESC":"REHABILITATION HOSPITALS (EXCEPT ALCOHOLISM, DRUG ADDICTION)","SOURCE":"http://www.healthy.arkansas.gov/programsServices/hsLicensingRegulation/HealthFacilityServices/Pages/ProviderLists.aspx","SOURCEDATE":1533686400000,"VAL_METHOD":"IMAGERY","VAL_DATE":1379376000000,"WEBSITE":"http://www.healthsouthfortsmith.com","STATE_ID":"043028","ALT_NAME":"NOT AVAILABLE","ST_FIPS":"05","OWNER":"PROPRIETARY","TTL_STAFF":-999,"BEDS":80,"TRAUMA":"NOT AVAILABLE","HELIPAD":"Y","img":"https://logo.clearbit.com/http://www.healthsouthfortsmith.com","santizer":10,"masks":10,"gloves":10},"0009700000":{"OBJECTID":175,"ID":"0009700000","NAME":"WHITE COUNTY MEDICAL CENTER - SOUTH CAMPUS","ADDRESS":"1200 SOUTH MAIN STREET","CITY":"SEARCY","STATE":"AR","ZIP":"72143","ZIP4":"NOT AVAILABLE","TELEPHONE":"(501) 278-3100","TYPE":"GENERAL ACUTE CARE","STATUS":"OPEN","POPULATION":193,"COUNTY":"WHITE","COUNTYFIPS":"05145","COUNTRY":"USA","LATITUDE":35.2340944110001,"LONGITUDE":-91.731074311,"NAICS_CODE":"622110","NAICS_DESC":"GENERAL MEDICAL AND SURGICAL HOSPITALS","SOURCE":"http://www.healthy.arkansas.gov/programsServices/hsLicensingRegulation/HealthFacilityServices/Pages/ProviderLists.aspx","SOURCEDATE":1533686400000,"VAL_METHOD":"IMAGERY/OTHER","VAL_DATE":1391990400000,"WEBSITE":"http://www.wcmc.org","STATE_ID":"040014DHFS","ALT_NAME":"NOT AVAILABLE","ST_FIPS":"05","OWNER":"NON-PROFIT","TTL_STAFF":-999,"BEDS":193,"TRAUMA":"NOT AVAILABLE","HELIPAD":"Y","img":"https://logo.clearbit.com/http://www.wcmc.org","santizer":10,"masks":10,"gloves":10},"0010172143":{"OBJECTID":176,"ID":"0010172143","NAME":"WHITE COUNTY MEDICAL CENTER - NORTH CAMPUS","ADDRESS":"3214 EAST RACE AVENUE","CITY":"SEARCY","STATE":"AR","ZIP":"72143","ZIP4":"NOT AVAILABLE","TELEPHONE":"(501) 268-6121","TYPE":"GENERAL ACUTE CARE","STATUS":"OPEN","POPULATION":286,"COUNTY":"WHITE","COUNTYFIPS":"05145","COUNTRY":"USA","LATITUDE":35.2518860440001,"LONGITUDE":-91.697001131,"NAICS_CODE":"622110","NAICS_DESC":"GENERAL MEDICAL AND SURGICAL HOSPITALS","SOURCE":"http://www.healthy.arkansas.gov/programsServices/hsLicensingRegulation/HealthFacilityServices/Pages/ProviderLists.aspx","SOURCEDATE":1533686400000,"VAL_METHOD":"IMAGERY/OTHER","VAL_DATE":1391990400000,"WEBSITE":"http://www.wcmc.org","STATE_ID":"040014","ALT_NAME":"NOT AVAILABLE","ST_FIPS":"05","OWNER":"NON-PROFIT","TTL_STAFF":-999,"BEDS":286,"TRAUMA":"LEVEL III","HELIPAD":"Y","img":"https://logo.clearbit.com/http://www.wcmc.org","santizer":10,"masks":10,"gloves":10},"0010272834":{"OBJECTID":177,"ID":"0010272834","NAME":"RIVER VALLEY MEDICAL CENTER","ADDRESS":"200 NORTH THIRD STREET","CITY":"DARDANELLE","STATE":"AR","ZIP":"72834","ZIP4":"NOT AVAILABLE","TELEPHONE":"(479) 229-4677","TYPE":"CRITICAL ACCESS","STATUS":"OPEN","POPULATION":35,"COUNTY":"YELL","COUNTYFIPS":"05149","COUNTRY":"USA","LATITUDE":35.220476139,"LONGITUDE":-93.157298166,"NAICS_CODE":"622110","NAICS_DESC":"GENERAL MEDICAL AND SURGICAL HOSPITALS","SOURCE":"http://www.healthy.arkansas.gov/programsServices/hsLicensingRegulation/HealthFacilityServices/Pages/ProviderLists.aspx","SOURCEDATE":1533686400000,"VAL_METHOD":"IMAGERY/OTHER","VAL_DATE":1391990400000,"WEBSITE":"NOT AVAILABLE","STATE_ID":"041302","ALT_NAME":"NOT AVAILABLE","ST_FIPS":"05","OWNER":"PROPRIETARY","TTL_STAFF":-999,"BEDS":35,"TRAUMA":"LEVEL IV","HELIPAD":"N","img":"https://logo.clearbit.com/NOT AVAILABLE","santizer":10,"masks":10,"gloves":10},"0002271923":{"OBJECTID":178,"ID":"0002271923","NAME":"BAPTIST HEALTH MEDICAL CENTER - ARKADELPHIA","ADDRESS":"3050 TWIN RIVERS DRIVE","CITY":"ARKADELPHIA","STATE":"AR","ZIP":"71923","ZIP4":"NOT AVAILABLE","TELEPHONE":"(870) 245-2622","TYPE":"CRITICAL ACCESS","STATUS":"OPEN","POPULATION":25,"COUNTY":"CLARK","COUNTYFIPS":"05019","COUNTRY":"USA","LATITUDE":34.1229135660001,"LONGITUDE":-93.088824163,"NAICS_CODE":"622110","NAICS_DESC":"GENERAL MEDICAL AND SURGICAL HOSPITALS","SOURCE":"http://www.healthy.arkansas.gov/programsServices/hsLicensingRegulation/HealthFacilityServices/Pages/ProviderLists.aspx","SOURCEDATE":1533686400000,"VAL_METHOD":"IMAGERY/OTHER","VAL_DATE":1391990400000,"WEBSITE":"http://www.baptist-health.com/locations/accesspoint.aspx?accessPointID=187","STATE_ID":"041321","ALT_NAME":"NOT AVAILABLE","ST_FIPS":"05","OWNER":"NON-PROFIT","TTL_STAFF":-999,"BEDS":25,"TRAUMA":"LEVEL IV","HELIPAD":"Y","img":"https://logo.clearbit.com/http://www.baptist-health.com/locations/accesspoint.aspx?accessPointID=187","santizer":10,"masks":10,"gloves":10},"0000872616":{"OBJECTID":179,"ID":"0000872616","NAME":"MERCY HOSPITAL BERRYVILLE","ADDRESS":"214 CARTER STREET","CITY":"BERRYVILLE","STATE":"AR","ZIP":"72616","ZIP4":"NOT AVAILABLE","TELEPHONE":"(870) 423-3355","TYPE":"CRITICAL ACCESS","STATUS":"OPEN","POPULATION":25,"COUNTY":"CARROLL","COUNTYFIPS":"05015","COUNTRY":"USA","LATITUDE":36.359062103,"LONGITUDE":-93.551825772,"NAICS_CODE":"622110","NAICS_DESC":"GENERAL MEDICAL AND SURGICAL HOSPITALS","SOURCE":"http://www.healthy.arkansas.gov/programsServices/hsLicensingRegulation/HealthFacilityServices/Pages/ProviderLists.aspx","SOURCEDATE":1533686400000,"VAL_METHOD":"IMAGERY/OTHER","VAL_DATE":1394582400000,"WEBSITE":"http://www.mercy.net/practice/mercy-hospital-berryville","STATE_ID":"041329","ALT_NAME":"NOT AVAILABLE","ST_FIPS":"05","OWNER":"NON-PROFIT","TTL_STAFF":-999,"BEDS":25,"TRAUMA":"NOT AVAILABLE","HELIPAD":"Y","img":"https://logo.clearbit.com/http://www.mercy.net/practice/mercy-hospital-berryville","santizer":10,"masks":10,"gloves":10},"0001072632":{"OBJECTID":180,"ID":"0001072632","NAME":"EUREKA SPRINGS HOSPITAL","ADDRESS":"24 NORRIS STREET","CITY":"EUREKA SPRINGS","STATE":"AR","ZIP":"72632","ZIP4":"NOT AVAILABLE","TELEPHONE":"(479) 253-7400","TYPE":"CRITICAL ACCESS","STATUS":"OPEN","POPULATION":22,"COUNTY":"CARROLL","COUNTYFIPS":"05015","COUNTRY":"USA","LATITUDE":36.400163789,"LONGITUDE":-93.744235921,"NAICS_CODE":"622110","NAICS_DESC":"GENERAL MEDICAL AND SURGICAL HOSPITALS","SOURCE":"http://www.healthy.arkansas.gov/programsServices/hsLicensingRegulation/HealthFacilityServices/Pages/ProviderLists.aspx","SOURCEDATE":1533686400000,"VAL_METHOD":"IMAGERY/OTHER","VAL_DATE":1394582400000,"WEBSITE":"http://www.eurekaspringshospital.com","STATE_ID":"041304","ALT_NAME":"NOT AVAILABLE","ST_FIPS":"05","OWNER":"PROPRIETARY","TTL_STAFF":-999,"BEDS":22,"TRAUMA":"LEVEL IV","HELIPAD":"Y","img":"https://logo.clearbit.com/http://www.eurekaspringshospital.com","santizer":10,"masks":10,"gloves":10},"0002871653":{"OBJECTID":181,"ID":"0002871653","NAME":"SOUTHEAST REHABILITATION HOSPITAL","ADDRESS":"2729A HWY 65 & 82 S","CITY":"LAKE VILLAGE","STATE":"AR","ZIP":"71653","ZIP4":"NOT AVAILABLE","TELEPHONE":"(870) 265-5343","TYPE":"REHABILITATION","STATUS":"OPEN","POPULATION":15,"COUNTY":"CHICOT","COUNTYFIPS":"05017","COUNTRY":"USA","LATITUDE":33.306293968,"LONGITUDE":-91.289589924,"NAICS_CODE":"622310","NAICS_DESC":"REHABILITATION HOSPITALS (EXCEPT ALCOHOLISM, DRUG ADDICTION)","SOURCE":"http://www.healthy.arkansas.gov/programsServices/hsLicensingRegulation/HealthFacilityServices/Pages/ProviderLists.aspx","SOURCEDATE":1533686400000,"VAL_METHOD":"IMAGERY/OTHER","VAL_DATE":1394582400000,"WEBSITE":"http://www.lakevillageclinic.com/SErehabhosp.html","STATE_ID":"043034","ALT_NAME":"NOT AVAILABLE","ST_FIPS":"05","OWNER":"PROPRIETARY","TTL_STAFF":-999,"BEDS":15,"TRAUMA":"NOT AVAILABLE","HELIPAD":"Y","img":"https://logo.clearbit.com/http://www.lakevillageclinic.com/SErehabhosp.html","santizer":10,"masks":10,"gloves":10},"0000671671":{"OBJECTID":182,"ID":"0000671671","NAME":"BRADLEY COUNTY MEDICAL CENTER","ADDRESS":"404 SOUTH BRADLEY STREET","CITY":"WARREN","STATE":"AR","ZIP":"71671","ZIP4":"NOT AVAILABLE","TELEPHONE":"(870) 226-3731","TYPE":"CRITICAL ACCESS","STATUS":"OPEN","POPULATION":35,"COUNTY":"BRADLEY","COUNTYFIPS":"05011","COUNTRY":"USA","LATITUDE":33.6103641340001,"LONGITUDE":-92.059254885,"NAICS_CODE":"622110","NAICS_DESC":"GENERAL MEDICAL AND SURGICAL HOSPITALS","SOURCE":"http://www.healthy.arkansas.gov/programsServices/hsLicensingRegulation/HealthFacilityServices/Pages/ProviderLists.aspx","SOURCEDATE":1533686400000,"VAL_METHOD":"IMAGERY","VAL_DATE":1391990400000,"WEBSITE":"http://www.bradleycountymedicalcenter.com","STATE_ID":"041327","ALT_NAME":"NOT AVAILABLE","ST_FIPS":"05","OWNER":"NON-PROFIT","TTL_STAFF":-999,"BEDS":35,"TRAUMA":"NOT AVAILABLE","HELIPAD":"Y","img":"https://logo.clearbit.com/http://www.bradleycountymedicalcenter.com","santizer":10,"masks":10,"gloves":10},"0008872455":{"OBJECTID":183,"ID":"0008872455","NAME":"FIVE RIVER MEDICAL CENTER","ADDRESS":"2801 MEDICAL CENTER DRIVE","CITY":"POCAHONTAS","STATE":"AR","ZIP":"72455","ZIP4":"NOT AVAILABLE","TELEPHONE":"(870) 892-6000","TYPE":"GENERAL ACUTE CARE","STATUS":"OPEN","POPULATION":50,"COUNTY":"RANDOLPH","COUNTYFIPS":"05121","COUNTRY":"USA","LATITUDE":36.2897602730001,"LONGITUDE":-90.99738763,"NAICS_CODE":"622110","NAICS_DESC":"GENERAL MEDICAL AND SURGICAL HOSPITALS","SOURCE":"http://www.healthy.arkansas.gov/programsServices/hsLicensingRegulation/HealthFacilityServices/Pages/ProviderLists.aspx","SOURCEDATE":1533686400000,"VAL_METHOD":"IMAGERY/OTHER","VAL_DATE":1391990400000,"WEBSITE":"http://www.fiveriversmedicalcenter.com","STATE_ID":"040047","ALT_NAME":"NOT AVAILABLE","ST_FIPS":"05","OWNER":"NON-PROFIT","TTL_STAFF":-999,"BEDS":50,"TRAUMA":"LEVEL IV","HELIPAD":"Y","img":"https://logo.clearbit.com/http://www.fiveriversmedicalcenter.com","santizer":10,"masks":10,"gloves":10},"0002571742":{"OBJECTID":184,"ID":"0002571742","NAME":"DALLAS COUNTY MEDICAL CENTER","ADDRESS":"201 NORTH CLIFTON STREET","CITY":"FORDYCE","STATE":"AR","ZIP":"71742","ZIP4":"NOT AVAILABLE","TELEPHONE":"(870) 352-6300","TYPE":"CRITICAL ACCESS","STATUS":"OPEN","POPULATION":25,"COUNTY":"DALLAS","COUNTYFIPS":"05039","COUNTRY":"USA","LATITUDE":33.81085539,"LONGITUDE":-92.425587644,"NAICS_CODE":"622110","NAICS_DESC":"GENERAL MEDICAL AND SURGICAL HOSPITALS","SOURCE":"http://www.healthy.arkansas.gov/programsServices/hsLicensingRegulation/HealthFacilityServices/Pages/ProviderLists.aspx","SOURCEDATE":1533686400000,"VAL_METHOD":"IMAGERY/OTHER","VAL_DATE":1394582400000,"WEBSITE":"http://www.dallascountymedicalcenter.com","STATE_ID":"041317","ALT_NAME":"NOT AVAILABLE","ST_FIPS":"05","OWNER":"GOVERNMENT - LOCAL","TTL_STAFF":-999,"BEDS":25,"TRAUMA":"LEVEL IV","HELIPAD":"Y","img":"https://logo.clearbit.com/http://www.dallascountymedicalcenter.com","santizer":10,"masks":10,"gloves":10},"0004100000":{"OBJECTID":185,"ID":"0004100000","NAME":"CRITTENDEN HOSPITAL ASSOCIATION","ADDRESS":"200 WEST TYLER AVENUE","CITY":"WEST MEMPHIS","STATE":"AR","ZIP":"72301","ZIP4":"NOT AVAILABLE","TELEPHONE":"(870) 735-1500","TYPE":"GENERAL ACUTE CARE","STATUS":"CLOSED","POPULATION":152,"COUNTY":"CRITTENDEN","COUNTYFIPS":"05035","COUNTRY":"USA","LATITUDE":35.1431102350001,"LONGITUDE":-90.1890985109999,"NAICS_CODE":"622110","NAICS_DESC":"GENERAL MEDICAL AND SURGICAL HOSPITALS","SOURCE":"http://www.arkansassiteselection.com/aedc/gis-data-download.aspx","SOURCEDATE":1340755200000,"VAL_METHOD":"IMAGERY/OTHER","VAL_DATE":1391990400000,"WEBSITE":"http://www.crittendenregional.org/","STATE_ID":"040042","ALT_NAME":"NOT AVAILABLE","ST_FIPS":"05","OWNER":"NON-PROFIT","TTL_STAFF":-999,"BEDS":152,"TRAUMA":"NOT AVAILABLE","HELIPAD":"Y","img":"https://logo.clearbit.com/http://www.crittendenregional.org/","santizer":10,"masks":10,"gloves":10},"0006171701":{"OBJECTID":186,"ID":"0006171701","NAME":"OUACHITA CO. MEDICAL CENTER","ADDRESS":"638 CALIFORNIA AVENUE","CITY":"CAMDEN","STATE":"AR","ZIP":"71701","ZIP4":"NOT AVAILABLE","TELEPHONE":"(870) 836-1000","TYPE":"GENERAL ACUTE CARE","STATUS":"OPEN","POPULATION":100,"COUNTY":"OUACHITA","COUNTYFIPS":"05103","COUNTRY":"USA","LATITUDE":33.5758211300001,"LONGITUDE":-92.8367393299999,"NAICS_CODE":"622110","NAICS_DESC":"GENERAL MEDICAL AND SURGICAL HOSPITALS","SOURCE":"http://www.healthy.arkansas.gov/programsServices/hsLicensingRegulation/HealthFacilityServices/Pages/ProviderLists.aspx","SOURCEDATE":1533686400000,"VAL_METHOD":"IMAGERY/OTHER","VAL_DATE":1391990400000,"WEBSITE":"http://www.ouachitamedcenter.com","STATE_ID":"040050","ALT_NAME":"NOT AVAILABLE","ST_FIPS":"05","OWNER":"NON-PROFIT","TTL_STAFF":-999,"BEDS":100,"TRAUMA":"LEVEL IV","HELIPAD":"Y","img":"https://logo.clearbit.com/http://www.ouachitamedcenter.com","santizer":10,"masks":10,"gloves":10},"0000572601":{"OBJECTID":187,"ID":"0000572601","NAME":"NORTH ARKANSAS REGIONAL MEDICAL CENTER","ADDRESS":"620 NORTH WILLOW","CITY":"HARRISON","STATE":"AR","ZIP":"72601","ZIP4":"NOT AVAILABLE","TELEPHONE":"(870) 365-2000","TYPE":"GENERAL ACUTE CARE","STATUS":"OPEN","POPULATION":174,"COUNTY":"BOONE","COUNTYFIPS":"05009","COUNTRY":"USA","LATITUDE":36.2365313550001,"LONGITUDE":-93.1091393739999,"NAICS_CODE":"622110","NAICS_DESC":"GENERAL MEDICAL AND SURGICAL HOSPITALS","SOURCE":"http://www.healthy.arkansas.gov/programsServices/hsLicensingRegulation/HealthFacilityServices/Pages/ProviderLists.aspx","SOURCEDATE":1533686400000,"VAL_METHOD":"IMAGERY/OTHER","VAL_DATE":1394582400000,"WEBSITE":"http://www.narmc.com","STATE_ID":"040017","ALT_NAME":"NOT AVAILABLE","ST_FIPS":"05","OWNER":"NON-PROFIT","TTL_STAFF":-999,"BEDS":174,"TRAUMA":"LEVEL III","HELIPAD":"Y","img":"https://logo.clearbit.com/http://www.narmc.com","santizer":10,"masks":10,"gloves":10},"0001672560":{"OBJECTID":188,"ID":"0001672560","NAME":"STONE COUNTY MEDICAL CENTER","ADDRESS":"2106 EAST MAIN STREET, HIGHWAY 14 EAST","CITY":"MOUNTAIN VIEW","STATE":"AR","ZIP":"72560","ZIP4":"NOT AVAILABLE","TELEPHONE":"(870) 269-4361","TYPE":"CRITICAL ACCESS","STATUS":"OPEN","POPULATION":25,"COUNTY":"STONE","COUNTYFIPS":"05137","COUNTRY":"USA","LATITUDE":35.856583126,"LONGITUDE":-92.0828645349999,"NAICS_CODE":"622110","NAICS_DESC":"GENERAL MEDICAL AND SURGICAL HOSPITALS","SOURCE":"http://www.healthy.arkansas.gov/programsServices/hsLicensingRegulation/HealthFacilityServices/Pages/ProviderLists.aspx","SOURCEDATE":1533686400000,"VAL_METHOD":"IMAGERY/OTHER","VAL_DATE":1391990400000,"WEBSITE":"http://www.whiteriverhealthsystem.com","STATE_ID":"041310","ALT_NAME":"NOT AVAILABLE","ST_FIPS":"05","OWNER":"NON-PROFIT","TTL_STAFF":-999,"BEDS":25,"TRAUMA":"LEVEL IV","HELIPAD":"Y","img":"https://logo.clearbit.com/http://www.whiteriverhealthsystem.com","santizer":10,"masks":10,"gloves":10},"0002372454":{"OBJECTID":189,"ID":"0002372454","NAME":"PIGGOTT COMMUNITY HOSPITAL","ADDRESS":"1206 GORDON DUCKWORTH DRIVE","CITY":"PIGGOTT","STATE":"AR","ZIP":"72454","ZIP4":"NOT AVAILABLE","TELEPHONE":"(870) 598-3881","TYPE":"CRITICAL ACCESS","STATUS":"OPEN","POPULATION":25,"COUNTY":"CLAY","COUNTYFIPS":"05021","COUNTRY":"USA","LATITUDE":36.390119473,"LONGITUDE":-90.20483796,"NAICS_CODE":"622110","NAICS_DESC":"GENERAL MEDICAL AND SURGICAL HOSPITALS","SOURCE":"http://www.healthy.arkansas.gov/programsServices/hsLicensingRegulation/HealthFacilityServices/Pages/ProviderLists.aspx","SOURCEDATE":1533686400000,"VAL_METHOD":"IMAGERY","VAL_DATE":1391990400000,"WEBSITE":"http://www.piggottcommunityhospital.com","STATE_ID":"041330","ALT_NAME":"NOT AVAILABLE","ST_FIPS":"05","OWNER":"GOVERNMENT - LOCAL","TTL_STAFF":-999,"BEDS":25,"TRAUMA":"LEVEL IV","HELIPAD":"Y","img":"https://logo.clearbit.com/http://www.piggottcommunityhospital.com","santizer":10,"masks":10,"gloves":10},"0001372543":{"OBJECTID":190,"ID":"0001372543","NAME":"BAPTIST HEALTH - HEBER SPRINGS","ADDRESS":"1800 BYPASS ROAD","CITY":"HEBER SPRINGS","STATE":"AR","ZIP":"72543","ZIP4":"NOT AVAILABLE","TELEPHONE":"(501) 887-3000","TYPE":"CRITICAL ACCESS","STATUS":"OPEN","POPULATION":25,"COUNTY":"CLEBURNE","COUNTYFIPS":"05023","COUNTRY":"USA","LATITUDE":35.488569576,"LONGITUDE":-92.057981141,"NAICS_CODE":"622110","NAICS_DESC":"GENERAL MEDICAL AND SURGICAL HOSPITALS","SOURCE":"http://www.healthy.arkansas.gov/programsServices/hsLicensingRegulation/HealthFacilityServices/Pages/ProviderLists.aspx","SOURCEDATE":1533686400000,"VAL_METHOD":"IMAGERY","VAL_DATE":1391990400000,"WEBSITE":"http://www.baptist-health.com/maps-directions/bhmc-heber-springs","STATE_ID":"041312","ALT_NAME":"NOT AVAILABLE","ST_FIPS":"05","OWNER":"NON-PROFIT","TTL_STAFF":-999,"BEDS":25,"TRAUMA":"LEVEL IV","HELIPAD":"Y","img":"https://logo.clearbit.com/http://www.baptist-health.com/maps-directions/bhmc-heber-springs","santizer":10,"masks":10,"gloves":10},"0002472110":{"OBJECTID":191,"ID":"0002472110","NAME":"ST. VINCENT MORRILTON","ADDRESS":"4 HOSPITAL DRIVE","CITY":"MORRILTON","STATE":"AR","ZIP":"72110","ZIP4":"NOT AVAILABLE","TELEPHONE":"(501) 977-2300","TYPE":"CRITICAL ACCESS","STATUS":"OPEN","POPULATION":35,"COUNTY":"CONWAY","COUNTYFIPS":"05029","COUNTRY":"USA","LATITUDE":35.168014912,"LONGITUDE":-92.721351317,"NAICS_CODE":"622110","NAICS_DESC":"GENERAL MEDICAL AND SURGICAL HOSPITALS","SOURCE":"http://www.healthy.arkansas.gov/programsServices/hsLicensingRegulation/HealthFacilityServices/Pages/ProviderLists.aspx","SOURCEDATE":1533686400000,"VAL_METHOD":"IMAGERY/OTHER","VAL_DATE":1391990400000,"WEBSITE":"https://www.stvincenthealth.com/morrilton/","STATE_ID":"041324","ALT_NAME":"NOT AVAILABLE","ST_FIPS":"05","OWNER":"NON-PROFIT","TTL_STAFF":-999,"BEDS":35,"TRAUMA":"LEVEL IV","HELIPAD":"Y","img":"https://logo.clearbit.com/https://www.stvincenthealth.com/morrilton/","santizer":10,"masks":10,"gloves":10},"0003072205":{"OBJECTID":192,"ID":"0003072205","NAME":"UAMS MEDICAL CENTER","ADDRESS":"4301 WEST MARKHAM STREET","CITY":"LITTLE ROCK","STATE":"AR","ZIP":"72205","ZIP4":"NOT AVAILABLE","TELEPHONE":"(501) 686-5000","TYPE":"GENERAL ACUTE CARE","STATUS":"OPEN","POPULATION":400,"COUNTY":"PULASKI","COUNTYFIPS":"05119","COUNTRY":"USA","LATITUDE":34.7490251460001,"LONGITUDE":-92.320137314,"NAICS_CODE":"622110","NAICS_DESC":"GENERAL MEDICAL AND SURGICAL HOSPITALS","SOURCE":"http://www.healthy.arkansas.gov/programsServices/hsLicensingRegulation/HealthFacilityServices/Pages/ProviderLists.aspx","SOURCEDATE":1533686400000,"VAL_METHOD":"IMAGERY/OTHER","VAL_DATE":1391990400000,"WEBSITE":"http://www.uamshealth.com/?id=1&sid=1","STATE_ID":"040016","ALT_NAME":"NOT AVAILABLE","ST_FIPS":"05","OWNER":"GOVERNMENT - STATE","TTL_STAFF":-999,"BEDS":400,"TRAUMA":"LEVEL I","HELIPAD":"Y","img":"https://logo.clearbit.com/http://www.uamshealth.com/?id=1&sid=1","santizer":10,"masks":10,"gloves":10},"0005000000":{"OBJECTID":193,"ID":"0005000000","NAME":"BAPTIST HEALTH MEDICAL CENTER - NORTH LITTLE ROCK","ADDRESS":"3333 SPRINGHILL DRIVE","CITY":"LITTLE ROCK","STATE":"AR","ZIP":"72117","ZIP4":"NOT AVAILABLE","TELEPHONE":"(501) 202-3000","TYPE":"GENERAL ACUTE CARE","STATUS":"OPEN","POPULATION":248,"COUNTY":"PULASKI","COUNTYFIPS":"05119","COUNTRY":"USA","LATITUDE":34.7836548870001,"LONGITUDE":-92.223409163,"NAICS_CODE":"622110","NAICS_DESC":"GENERAL MEDICAL AND SURGICAL HOSPITALS","SOURCE":"http://www.healthy.arkansas.gov/programsServices/hsLicensingRegulation/HealthFacilityServices/Pages/ProviderLists.aspx","SOURCEDATE":1533686400000,"VAL_METHOD":"IMAGERY/OTHER","VAL_DATE":1391990400000,"WEBSITE":"https://www.baptist-health.com/locations/accesspoint.aspx?accessPointID=190","STATE_ID":"040036","ALT_NAME":"NOT AVAILABLE","ST_FIPS":"05","OWNER":"NON-PROFIT","TTL_STAFF":-999,"BEDS":248,"TRAUMA":"LEVEL III","HELIPAD":"Y","img":"https://logo.clearbit.com/https://www.baptist-health.com/locations/accesspoint.aspx?accessPointID=190","santizer":10,"masks":10,"gloves":10},"0006972113":{"OBJECTID":194,"ID":"0006972113","NAME":"UNITED METHODIST BEHAVIORAL HEALTH SYSTEMS","ADDRESS":"1601 MURPHY DRIVE","CITY":"MAUMELLE","STATE":"AR","ZIP":"72113","ZIP4":"NOT AVAILABLE","TELEPHONE":"(501) 803-3388","TYPE":"PSYCHIATRIC","STATUS":"OPEN","POPULATION":60,"COUNTY":"PULASKI","COUNTYFIPS":"05119","COUNTRY":"USA","LATITUDE":34.8764356660001,"LONGITUDE":-92.394413249,"NAICS_CODE":"622210","NAICS_DESC":"PSYCHIATRIC AND SUBSTANCE ABUSE HOSPITALS","SOURCE":"http://www.healthy.arkansas.gov/programsServices/hsLicensingRegulation/HealthFacilityServices/Pages/ProviderLists.aspx","SOURCEDATE":1533686400000,"VAL_METHOD":"IMAGERY/OTHER","VAL_DATE":1391990400000,"WEBSITE":"http://www.umch.org","STATE_ID":"044017","ALT_NAME":"NOT AVAILABLE","ST_FIPS":"05","OWNER":"NON-PROFIT","TTL_STAFF":-999,"BEDS":60,"TRAUMA":"NOT AVAILABLE","HELIPAD":"N","img":"https://logo.clearbit.com/http://www.umch.org","santizer":10,"masks":10,"gloves":10},"0008372205":{"OBJECTID":195,"ID":"0008372205","NAME":"ST. VINCENT DOCTORS HOSPITAL","ADDRESS":"6101 ST. VINCENT CIRCLE","CITY":"LITTLE ROCK","STATE":"AR","ZIP":"72205","ZIP4":"NOT AVAILABLE","TELEPHONE":"(501) 552-6000","TYPE":"GENERAL ACUTE CARE","STATUS":"CLOSED","POPULATION":252,"COUNTY":"PULASKI","COUNTYFIPS":"05119","COUNTRY":"USA","LATITUDE":34.7477022140001,"LONGITUDE":-92.344099124,"NAICS_CODE":"622110","NAICS_DESC":"GENERAL MEDICAL AND SURGICAL HOSPITALS","SOURCE":"http://www.arkansassiteselection.com/aedc/gis-data-download.aspx","SOURCEDATE":1340755200000,"VAL_METHOD":"IMAGERY/OTHER","VAL_DATE":1391990400000,"WEBSITE":"https://www.stvincenthealth.com/","STATE_ID":"040007 (DHFS ID# 040116)","ALT_NAME":"NOT AVAILABLE","ST_FIPS":"05","OWNER":"NON-PROFIT","TTL_STAFF":-999,"BEDS":252,"TRAUMA":"NOT AVAILABLE","HELIPAD":"N","img":"https://logo.clearbit.com/https://www.stvincenthealth.com/","santizer":10,"masks":10,"gloves":10},"0001971901":{"OBJECTID":196,"ID":"0001971901","NAME":"LEO N. LEVI NATIONAL ARTHRITIS HOSPITAL","ADDRESS":"300 PROSPECT AVENUE","CITY":"HOT SPRINGS","STATE":"AR","ZIP":"71901","ZIP4":"NOT AVAILABLE","TELEPHONE":"(501) 624-1281","TYPE":"GENERAL ACUTE CARE","STATUS":"OPEN","POPULATION":89,"COUNTY":"GARLAND","COUNTYFIPS":"05051","COUNTRY":"USA","LATITUDE":34.5098970650001,"LONGITUDE":-93.057577489,"NAICS_CODE":"622110","NAICS_DESC":"GENERAL MEDICAL AND SURGICAL HOSPITALS","SOURCE":"http://www.healthy.arkansas.gov/programsServices/hsLicensingRegulation/HealthFacilityServices/Pages/ProviderLists.aspx","SOURCEDATE":1533686400000,"VAL_METHOD":"IMAGERY","VAL_DATE":1391990400000,"WEBSITE":"http://www.levihospital.com","STATE_ID":"040132","ALT_NAME":"NOT AVAILABLE","ST_FIPS":"05","OWNER":"NON-PROFIT","TTL_STAFF":-999,"BEDS":89,"TRAUMA":"NOT AVAILABLE","HELIPAD":"N","img":"https://logo.clearbit.com/http://www.levihospital.com","santizer":10,"masks":10,"gloves":10},"0004671901":{"OBJECTID":197,"ID":"0004671901","NAME":"HOT SPRINGS REHABILITATION CENTER","ADDRESS":"105 RESERVE STREET","CITY":"HOT SPRINGS","STATE":"AR","ZIP":"71901","ZIP4":"NOT AVAILABLE","TELEPHONE":"(501) 624-4411","TYPE":"REHABILITATION","STATUS":"CLOSED","POPULATION":35,"COUNTY":"GARLAND","COUNTYFIPS":"05051","COUNTRY":"USA","LATITUDE":34.5121250130001,"LONGITUDE":-93.052607872,"NAICS_CODE":"622310","NAICS_DESC":"REHABILITATION HOSPITALS (EXCEPT ALCOHOLISM, DRUG ADDICTION)","SOURCE":"http://www.arkansassiteselection.com/aedc/gis-data-download.aspx","SOURCEDATE":1340755200000,"VAL_METHOD":"IMAGERY","VAL_DATE":1391990400000,"WEBSITE":"NOT AVAILABLE","STATE_ID":"043027","ALT_NAME":"NOT AVAILABLE","ST_FIPS":"05","OWNER":"GOVERNMENT - STATE","TTL_STAFF":-999,"BEDS":35,"TRAUMA":"NOT AVAILABLE","HELIPAD":"N","img":"https://logo.clearbit.com/NOT AVAILABLE","santizer":10,"masks":10,"gloves":10},"0005971913":{"OBJECTID":198,"ID":"0005971913","NAME":"CHI ST VINCENT HOSPITAL HOT SPRINGS","ADDRESS":"300 WERNER STREET","CITY":"HOT SPRINGS","STATE":"AR","ZIP":"71913","ZIP4":"NOT AVAILABLE","TELEPHONE":"(501) 622-1120","TYPE":"GENERAL ACUTE CARE","STATUS":"OPEN","POPULATION":289,"COUNTY":"GARLAND","COUNTYFIPS":"05051","COUNTRY":"USA","LATITUDE":34.46802567,"LONGITUDE":-93.066270414,"NAICS_CODE":"622110","NAICS_DESC":"GENERAL MEDICAL AND SURGICAL HOSPITALS","SOURCE":"http://www.healthy.arkansas.gov/programsServices/hsLicensingRegulation/HealthFacilityServices/Pages/ProviderLists.aspx","SOURCEDATE":1533686400000,"VAL_METHOD":"IMAGERY/OTHER","VAL_DATE":1391990400000,"WEBSITE":"http://www.chistvincent.com/Hospitals/st-vincent-hot-springs","STATE_ID":"040026","ALT_NAME":"NOT AVAILABLE","ST_FIPS":"05","OWNER":"NON-PROFIT","TTL_STAFF":-999,"BEDS":289,"TRAUMA":"LEVEL II","HELIPAD":"Y","img":"https://logo.clearbit.com/http://www.chistvincent.com/Hospitals/st-vincent-hot-springs","santizer":10,"masks":10,"gloves":10},"0006600000":{"OBJECTID":199,"ID":"0006600000","NAME":"BAPTIST HEALTH MEDICAL CENTER - HOT SPRING COUNTY","ADDRESS":"1001 SCHNEIDER DRIVE","CITY":"MALVERN","STATE":"AR","ZIP":"72104","ZIP4":"NOT AVAILABLE","TELEPHONE":"(501) 332-1000","TYPE":"GENERAL ACUTE CARE","STATUS":"OPEN","POPULATION":72,"COUNTY":"HOT SPRING","COUNTYFIPS":"05059","COUNTRY":"USA","LATITUDE":34.358774038,"LONGITUDE":-92.785888401,"NAICS_CODE":"622110","NAICS_DESC":"GENERAL MEDICAL AND SURGICAL HOSPITALS","SOURCE":"http://www.healthy.arkansas.gov/programsServices/hsLicensingRegulation/HealthFacilityServices/Pages/ProviderLists.aspx","SOURCEDATE":1533686400000,"VAL_METHOD":"IMAGERY/OTHER","VAL_DATE":1391990400000,"WEBSITE":"http://www.hscmc.org/","STATE_ID":"040076","ALT_NAME":"NOT AVAILABLE","ST_FIPS":"05","OWNER":"PROPRIETARY","TTL_STAFF":-999,"BEDS":72,"TRAUMA":"LEVEL IV","HELIPAD":"Y","img":"https://logo.clearbit.com/http://www.hscmc.org/","santizer":10,"masks":10,"gloves":10},"0003971603":{"OBJECTID":200,"ID":"0003971603","NAME":"ARKANSAS DEPT. OF CORRECTION-DIAGNOSTIC UNIT","ADDRESS":"7500 CORRECTIONS CIRCLE","CITY":"PINE BLUFF","STATE":"AR","ZIP":"71603","ZIP4":"NOT AVAILABLE","TELEPHONE":"(870) 267-6450","TYPE":"GENERAL ACUTE CARE","STATUS":"OPEN","POPULATION":27,"COUNTY":"JEFFERSON","COUNTYFIPS":"05069","COUNTRY":"USA","LATITUDE":34.2221914250001,"LONGITUDE":-92.082686048,"NAICS_CODE":"622110","NAICS_DESC":"GENERAL MEDICAL AND SURGICAL HOSPITALS","SOURCE":"http://www.healthy.arkansas.gov/programsServices/hsLicensingRegulation/HealthFacilityServices/Pages/ProviderLists.aspx","SOURCEDATE":1533686400000,"VAL_METHOD":"IMAGERY","VAL_DATE":1379462400000,"WEBSITE":"http://adc.arkansas.gov/Pages/default.aspx","STATE_ID":"040999","ALT_NAME":"NOT AVAILABLE","ST_FIPS":"05","OWNER":"GOVERNMENT - STATE","TTL_STAFF":-999,"BEDS":27,"TRAUMA":"NOT AVAILABLE","HELIPAD":"N","img":"https://logo.clearbit.com/http://adc.arkansas.gov/Pages/default.aspx","santizer":10,"masks":10,"gloves":10}}